PID,patient_number_year,M1,M2,M3,M4,M5,M6,M7,M8,M9,M10,M11,M12,ProviderName,lat,lng,county_name,num_mins,num_hours,num_weeks,num_CC
6,66,11,5,7,6,4,3,3,5,6,5,3,11,Accel at College Station,30.56255,-96.27564,Brazos,19298.0,321.6333333333333,6.18525641025641,0.15463141025641025
8,107,20,12,14,12,16,17,15,8,6,6,4,7,Accel at Willow Bend,33.0355,-96.81000999999999,Collin,30459.0,507.65,9.7625,0.2440625
9,87,10,10,15,12,11,11,12,7,10,6,10,6,Adora Midtown Park,32.87767,-96.74979,Dallas,18959.0,315.98333333333335,6.076602564102564,0.1519150641025641
10,4,2,0,1,0,1,0,0,0,0,0,0,0,Advance Healthcare Solutions,33.85238,-98.54057,Wichita,1062.0,17.7,0.3403846153846154,0.008509615384615385
11,25,4,6,5,6,3,4,1,1,0,0,0,0,Advanced Health and Rehabilitation Center of Garland,32.85707,-96.57941,Dallas,7685.0,128.08333333333334,2.463141025641026,0.06157852564102565
12,32,3,3,5,4,3,2,4,5,2,2,2,2,Advanced Rehab and Healthcare,29.55554,-98.36174,Bexar,7518.0,125.3,2.4096153846153845,0.06024038461538461
13,26,4,7,1,4,1,2,2,2,0,1,0,4,Advanced Rehab and Healthcare of Athens,32.09642,-95.9083,Henderson,7502.0,125.03333333333332,2.4044871794871794,0.060112179487179486
14,52,3,8,9,5,4,9,4,5,1,2,4,3,Advanced Rehab of Wichita Falls,33.85238,-98.54057,Wichita,15852.0,264.2,5.080769230769231,0.12701923076923075
15,37,1,1,3,3,4,4,1,3,6,5,3,4,Advanced Rehabilitation and Healthcare of Bowie,33.51993,-97.95469,Montague,10533.0,175.55,3.3759615384615387,0.08439903846153847
17,115,14,14,12,7,8,15,11,13,7,10,6,7,Adventhealth Care Center Burleson,32.52605,-97.30317,Johnson,25271.0,421.1833333333333,8.099679487179486,0.2024919871794872
18,37,1,0,3,3,6,6,5,6,4,5,2,0,Afton Oaks Healthcare And Rehabilitation Center,29.68612000000001,-95.30343,Harris,10863.0,181.05,3.481730769230769,0.08704326923076924
19,33,2,3,1,5,2,1,4,3,3,1,3,5,Alameda Oaks Nursing Center,27.76805,-97.39899,Nueces,9207.0,153.45,2.9509615384615384,0.07377403846153846
20,25,2,1,1,3,2,3,4,0,4,6,1,3,Alamo Heights Health and Rehabilitation Center,29.48906,-98.45671,Bexar,6269.0,104.48333333333332,2.0092948717948715,0.0502323717948718
21,6,0,1,0,1,0,0,0,2,1,0,1,0,Alfredo Gonzalez Texas State Veterans Home,26.16531,-98.24764,Hidalgo,1420.0,23.66666666666667,0.4551282051282052,0.01137820512820513
22,99,9,7,9,9,12,12,12,14,11,10,11,10,ALLEGIANT WELLNESS AND REHAB,32.577020000000005,-97.41283,Tarrant,21227.0,353.78333333333336,6.803525641025642,0.17008814102564104
23,26,4,4,2,2,1,4,1,2,1,2,1,2,Alpine Terrace,30.03422,-99.15819,Kerr,4056.0,67.6,1.2999999999999998,0.032499999999999994
25,102,8,9,20,9,10,4,5,10,5,9,13,13,Alta Vista Rehabilitation and Healthcare,25.95038,-97.32167,Cameron,22582.0,376.36666666666673,7.237820512820513,0.18094551282051285
27,8,1,0,1,0,2,0,1,1,1,0,1,0,Alvarado Meadows Nursing and Rehabilitation Center,32.41579,-97.20169,Johnson,1836.0,30.6,0.5884615384615385,0.014711538461538462
28,48,7,4,7,7,3,0,5,5,3,8,0,3,Amarillo Center for Skilled Care,35.203179999999996,-101.89519,Potter,14064.0,234.4,4.5076923076923086,0.11269230769230767
29,5,0,0,0,1,2,1,1,2,1,1,1,1,Ambrosio Guillen Texas State Veterans Home,31.90245,-106.41325,El Paso,1747.0,29.11666666666667,0.5599358974358974,0.013998397435897435
31,44,5,7,5,8,3,4,0,2,2,3,9,6,"Amistad Nursing Home and Rehabilitation Center, LLC",29.356640000000002,-99.87147,Uvalde,14164.0,236.06666666666663,4.53974358974359,0.11349358974358975
33,7,1,1,1,2,0,1,0,0,0,0,0,1,Anderson Nursing Center,32.64689,-95.69144,Van Zandt,2139.0,35.65,0.6855769230769231,0.017139423076923076
35,4,0,0,0,0,0,3,1,0,0,0,0,0,Anson General Hospital,32.74484,-99.90508,Jones,1194.0,19.9,0.3826923076923077,0.009567307692307693
37,2,0,0,0,0,1,0,0,0,0,0,1,0,Apex Secure Care Brownfield,33.14437,-102.31614,Terry,498.0,8.3,0.15961538461538466,0.003990384615384615
38,11,0,0,0,2,0,0,1,3,4,2,2,2,Arbor Grace Of Kilgore,32.383990000000004,-94.87015,Gregg,3133.0,52.21666666666667,1.0041666666666669,0.02510416666666667
41,7,1,0,0,0,0,0,0,1,1,0,0,4,Arbor Grace Wellness Center,33.88987,-102.33544,Lamb,2139.0,35.65,0.6855769230769231,0.017139423076923076
42,16,1,0,1,1,1,2,1,3,1,1,2,2,Arbor Terrace Healthcare Center,31.48482000000001,-100.43723,Tom Green,4314.0,71.9,1.382692307692308,0.034567307692307696
43,6,2,1,1,0,1,0,0,0,0,0,0,1,Arboretum Nursing and Rehabilitation Center of Winnie,29.81687,-94.41658000000001,Chambers,1494.0,24.9,0.4788461538461538,0.011971153846153843
45,100,15,10,10,12,13,14,10,11,6,5,4,5,Arbrook Plaza,32.69202,-97.08794,Tarrant,27286.0,454.76666666666665,8.74551282051282,0.2186378205128205
46,1,0,0,0,0,0,0,0,0,0,0,0,1,Archer City Nursing Center,33.568909999999995,-98.67458,Archer,315.0,5.25,0.10096153846153846,0.0025240384615384612
47,19,1,1,1,1,5,2,2,2,1,2,1,1,Arlington Heights Health and Rehabilitation Center,32.74171,-97.38195999999999,Tarrant,3669.0,61.15,1.1759615384615385,0.029399038461538463
48,5,0,0,0,0,2,0,1,2,3,2,1,1,Arlington Residence and Rehabilitation Center,32.75425,-97.08254000000001,Tarrant,2015.0,33.583333333333336,0.6458333333333334,0.01614583333333334
49,36,7,5,4,7,2,6,3,5,1,2,1,2,Arlington Villa Nursing Retirement Center,32.75461,-97.13902,Tarrant,11498.0,191.63333333333333,3.68525641025641,0.09213141025641024
50,5,0,0,0,0,2,2,1,0,0,2,0,0,Army Residence Community Health Care Center,29.5168,-98.363,Bexar,963.0,16.05,0.30865384615384617,0.007716346153846154
52,46,5,3,4,1,5,3,4,4,7,6,6,3,Ashford Gardens,29.85962,-95.38351,Harris,12740.0,212.33333333333331,4.083333333333334,0.10208333333333336
53,4,0,0,1,0,2,0,0,0,0,0,0,1,Ashford Hall,32.82602,-96.96544,Dallas,798.0,13.3,0.2557692307692308,0.00639423076923077
54,43,4,4,7,2,2,4,4,6,2,3,5,5,Ashton Medical Lodge,31.97945,-102.13231,Midland,12885.0,214.75,4.1298076923076925,0.10324519230769233
55,14,5,4,4,4,3,2,2,2,2,2,1,0,Ashton Park Care Center,29.399409999999996,-94.99750999999999,Galveston,4138.0,68.96666666666667,1.3262820512820512,0.03315705128205128
56,3,0,0,0,0,2,1,1,1,0,0,0,0,Athens Healthcare and Rehabilitation,32.09642,-95.9083,Henderson,1539.0,25.65,0.4932692307692307,0.012331730769230768
59,11,4,2,1,0,1,1,0,1,1,0,0,0,Austin Healthcare And Rehabilitation,30.304270000000002,-97.6857,Travis,3399.0,56.65,1.0894230769230768,0.027235576923076918
60,19,3,1,2,0,3,0,3,1,3,2,2,0,Austin Retirement and Nursing Center,30.35158,-97.73252,Travis,3741.0,62.35,1.1990384615384615,0.029975961538461538
61,26,6,4,4,2,2,2,2,2,4,1,3,1,AUSTIN WELLNESS AND REHABILITATION,30.41828,-97.80246,Travis,6714.0,111.9,2.151923076923077,0.05379807692307692
64,30,0,2,4,4,5,8,4,3,2,0,3,2,Autumn Leaves,32.84154,-96.70236,Dallas,9316.0,155.26666666666668,2.985897435897436,0.0746474358974359
65,26,1,1,1,5,3,5,2,1,1,5,2,1,Autumn Leaves Nursing and Rehabilitation,32.229890000000005,-94.73272,Rusk,7888.0,131.46666666666667,2.528205128205128,0.0632051282051282
66,1,0,0,0,1,0,0,0,0,0,0,0,0,Autumn Winds,29.54622,-98.26628000000001,Guadalupe,117.0,1.95,0.0375,0.0009375
67,10,1,0,1,1,0,0,2,1,1,0,2,1,Avalon Place Kirbyville,30.677709999999998,-93.97824,Jasper,2886.0,48.1,0.925,0.023125
68,34,2,1,4,3,1,3,11,5,1,4,4,1,Avalon Place Trinity,30.959840000000003,-95.32384,Trinity,9890.0,164.83333333333334,3.169871794871795,0.07924679487179488
69,16,0,1,2,4,1,3,3,1,3,0,2,0,Avalon Place Wharton,29.306820000000002,-96.09125,Wharton,5304.0,88.4,1.7000000000000002,0.0425
70,8,1,0,0,1,2,1,3,0,0,0,0,0,Avante Rehabilitation and Care Center,32.82602,-96.96544,Dallas,2256.0,37.6,0.7230769230769231,0.01807692307692308
72,19,1,1,0,5,3,3,3,4,0,1,1,0,Azalea Trail Nursing and Rehabilitation Center,32.64689,-95.69144,Van Zandt,6183.0,103.05,1.981730769230769,0.04954326923076922
73,18,4,1,4,3,5,2,4,3,1,1,2,1,Azle Manor Health Care and Rehabilitation,32.900040000000004,-97.56544,Tarrant,6410.0,106.83333333333331,2.0544871794871797,0.051362179487179485
74,4,0,0,1,1,0,2,0,0,0,0,0,0,Balch Springs Health and Rehabilitation,32.71894,-96.61839,Dallas,1194.0,19.9,0.3826923076923077,0.009567307692307693
75,6,0,1,0,1,0,0,0,1,0,1,1,1,Ballinger Healthcare and Rehabilitation Center,31.7387,-99.93626,Runnels,1758.0,29.3,0.5634615384615385,0.01408653846153846
77,11,1,0,1,0,1,0,2,1,2,2,1,0,Bandera Nursing and Rehabilitation Center,29.709590000000002,-99.09413,Bandera,1807.0,30.11666666666667,0.5791666666666667,0.014479166666666668
78,4,1,0,0,0,0,0,0,0,1,0,2,0,Bangs Nursing and Rehabilitation Center,31.701190000000004,-99.15992,Brown,1062.0,17.7,0.3403846153846154,0.008509615384615385
80,38,8,4,2,4,5,4,3,6,3,3,1,3,Bastrop Lost Pines Nursing and Rehabilitation Center,30.123829999999998,-97.3284,Bastrop,11496.0,191.6,3.684615384615384,0.0921153846153846
81,16,1,0,2,1,0,3,3,2,3,2,0,2,Bastrop Nursing Center,30.123829999999998,-97.3284,Bastrop,5106.0,85.1,1.6365384615384615,0.04091346153846154
82,21,4,1,3,1,1,1,1,3,0,3,3,1,Bay Villa Healthcare Center,28.899590000000003,-95.88091,Matagorda,5823.0,97.05,1.8663461538461537,0.04665865384615385
83,120,14,11,21,15,14,13,18,15,8,6,7,5,Baybrooke Village Care and Rehabilitation Center,33.17311,-96.69773,Collin,32536.0,542.2666666666668,10.428205128205127,0.2607051282051282
84,16,6,2,0,3,2,0,0,2,1,0,0,0,Baylor Scott And White Continuing Care Hospital,31.096220000000002,-97.41034,Bell,4182.0,69.7,1.3403846153846155,0.03350961538461539
90,28,4,4,6,6,4,3,4,5,4,4,2,3,Bayou Pines Care Center,29.36383,-94.97975,Galveston,8466.0,141.1,2.713461538461538,0.06783653846153845
92,192,18,14,17,18,30,11,13,17,17,20,24,23,Baywind Village Skilled Nursing and Rehabilitation,29.50205,-95.08652,Galveston,54352.0,905.8666666666667,17.42051282051282,0.4355128205128205
93,21,2,5,2,2,5,2,1,1,2,2,2,4,Baywood Crossing Rehabilitation and Healthcare Center,29.646079999999998,-95.13826,Harris,5885.0,98.08333333333331,1.886217948717949,0.04715544871794872
94,63,1,8,4,9,9,15,6,11,5,4,4,3,Beacon Harbor Healthcare and Rehabilitation,32.941720000000004,-96.44993000000001,Rockwall,20191.0,336.51666666666665,6.4714743589743575,0.16178685897435896
95,117,15,9,15,9,14,7,10,16,7,12,8,7,Beacon Hill,33.77167,-96.60413,Grayson,35715.0,595.25,11.447115384615385,0.2861778846153846
96,43,7,2,1,2,6,6,1,5,3,5,2,4,Beaumont Health Care Center,30.05295,-94.17654,Jefferson,12291.0,204.85,3.9394230769230765,0.09848557692307693
97,3,0,0,0,1,0,1,1,1,0,0,0,0,Beaumont Nursing and Rehabilitation,30.05295,-94.17654,Jefferson,941.0,15.683333333333335,0.3016025641025641,0.007540064102564101
98,25,5,6,5,4,1,3,3,4,2,1,1,0,Bedford Wellness And Rehabilitation,32.852309999999996,-97.13119,Tarrant,7917.0,131.95,2.5375,0.0634375
99,25,6,2,3,2,1,1,4,3,3,4,3,3,Beechnut Manor,29.69962,-95.58504,Harris,5423.0,90.38333333333334,1.7381410256410257,0.043453525641025635
100,84,14,8,11,3,5,4,8,5,7,6,5,10,Bel Air at Teravista,30.544890000000002,-97.64379,Williamson,23886.0,398.1,7.655769230769231,0.1913942307692308
104,3,1,1,2,0,0,0,0,0,0,0,0,0,Bellville Medical Center,29.978790000000004,-96.25057,Austin,1077.0,17.95,0.3451923076923077,0.008629807692307692
105,51,5,6,9,9,9,8,14,12,10,7,7,4,Belterra Health And Rehabilitation Center,33.24664,-96.62898,Collin,15899.0,264.98333333333335,5.095833333333333,0.12739583333333332
107,2,1,0,0,1,0,0,0,0,0,0,0,0,Benbrook Nursing and Rehabilitation Center,32.633829999999996,-97.51234000000001,Tarrant,696.0,11.6,0.22307692307692306,0.005576923076923077
108,2,0,0,0,0,0,1,0,0,1,0,0,0,Bertram Nursing and Rehab Center,30.782190000000003,-98.04562,Burnet,564.0,9.4,0.1807692307692308,0.0045192307692307684
109,6,2,0,0,1,0,1,0,0,0,0,1,1,Big Bend Regional Medical Center,29.800079999999998,-103.22466,Brewster,1560.0,26.0,0.5,0.0125
111,12,1,0,0,1,1,2,1,1,0,1,4,0,Big Spring Center For Skilled Care,32.253640000000004,-101.47291,Howard,3318.0,55.3,1.0634615384615385,0.02658653846153846
112,4,0,0,0,0,0,0,2,0,1,0,0,1,"Birchwood Nursing and Rehabilitation, LP",33.396029999999996,-95.67444,Delta,890.0,14.833333333333336,0.28525641025641024,0.007131410256410256
114,28,3,3,4,7,3,2,3,7,3,4,4,3,Bishop Davies Nursing Center,32.85918,-97.17782,Tarrant,8774.0,146.23333333333332,2.812179487179487,0.07030448717948717
115,67,6,3,8,6,9,4,8,4,6,4,7,5,Bivins Pointe,35.203179999999996,-101.89519,Potter,19323.0,322.05,6.193269230769231,0.1548317307692308
116,4,0,0,2,2,1,1,1,1,0,0,0,0,Blanco Villa Nursing and Rehabilitation,29.536459999999998,-98.4892,Bexar,1196.0,19.933333333333334,0.38333333333333336,0.009583333333333334
117,9,1,0,1,1,1,0,1,0,1,2,1,0,Blue Skies of Texas East,29.406259999999996,-98.62941,Bexar,1305.0,21.75,0.4182692307692308,0.01045673076923077
118,6,0,1,0,1,0,1,0,1,0,1,0,1,Blue Skies of Texas West,29.403959999999998,-98.73079,Bexar,666.0,11.1,0.21346153846153845,0.005336538461538461
119,4,0,1,1,0,0,0,0,0,0,0,1,1,Bluebonnet Nursing And Rehabilitation,28.88645,-97.95035,Karnes,1296.0,21.6,0.4153846153846154,0.010384615384615384
121,4,1,1,1,1,0,0,1,1,1,0,0,0,"Bonham Nursing and Rehabilitation, LP",33.57268,-96.17766,Fannin,2052.0,34.2,0.6576923076923078,0.016442307692307694
122,204,17,25,31,29,32,23,16,26,9,8,4,8,BONNE VIE,29.881109999999996,-93.94104,Jefferson,61172.0,1019.5333333333333,19.606410256410253,0.4901602564102564
123,7,3,1,1,0,1,0,0,0,1,0,0,0,Bonner Street Plaza Healthcare and Rehabilitation,31.9462,-95.25704,Cherokee,1743.0,29.05,0.5586538461538462,0.013966346153846154
124,5,2,2,2,0,0,0,0,0,0,1,0,0,Borger Healthcare Center,35.69979,-101.39788,Hutchinson,1707.0,28.45,0.5471153846153846,0.013677884615384614
126,3,0,1,0,0,1,0,0,0,0,1,0,0,Brady West Rehabilitation and Nursing Center,31.104740000000003,-99.39545,McCulloch,1077.0,17.95,0.3451923076923077,0.008629807692307692
127,2,1,0,0,0,1,0,0,0,0,0,0,0,Brazos at Waco,31.514409999999998,-97.15333000000001,McLennan,564.0,9.4,0.1807692307692308,0.0045192307692307684
128,14,1,1,1,3,0,0,4,3,1,0,1,1,Brazos Towers At Bayou Manor,29.686609999999998,-95.43499,Harris,4276.0,71.26666666666667,1.3705128205128203,0.03426282051282052
129,3,0,0,0,1,1,0,0,0,0,0,0,1,Brazos Valley Care Homebrazos Valley Nursing And Rehabilitation Center,33.43853,-99.8473,Knox,945.0,15.75,0.30288461538461536,0.007572115384615385
131,6,1,0,0,0,1,0,1,0,1,0,0,2,Brazosview Healthcare Center,29.48,-95.68315,Fort Bend,1626.0,27.1,0.5211538461538462,0.013028846153846156
132,1,0,0,0,0,0,1,0,0,0,0,0,0,Bremond Nursing and Rehabilitation Center,31.15492,-96.6554,Robertson,183.0,3.05,0.05865384615384616,0.0014663461538461538
133,49,5,5,4,6,8,7,5,6,5,1,2,4,Brenham Nursing and Rehabilitation Center,30.21068,-96.40706,Washington,16095.0,268.25,5.158653846153847,0.12896634615384614
136,1,0,1,1,1,1,0,0,0,0,0,0,0,Brentwood Place I,32.77001,-96.68728,Dallas,485.0,8.083333333333334,0.15544871794871795,0.0038862179487179492
137,2,1,0,0,0,0,0,0,1,0,0,0,0,Brentwood Place II,32.77001,-96.68728,Dallas,630.0,10.5,0.20192307692307693,0.0050480769230769225
138,10,0,0,2,0,0,3,3,2,1,1,0,0,Brentwood Place III,32.77001,-96.68728,Dallas,3122.0,52.03333333333333,1.0006410256410256,0.02501602564102564
139,57,6,2,4,2,6,7,12,4,4,6,4,5,Brentwood Terrace Healthcare And Rehabilitation Center,33.62385,-95.48378000000001,Lamar,13381.0,223.01666666666668,4.288782051282052,0.1072195512820513
140,29,3,2,2,2,4,3,8,7,1,0,1,2,Briarcliff Health Center,32.32329,-95.30091,Smith,7637.0,127.28333333333332,2.44775641025641,0.061193910256410265
141,63,6,4,4,5,4,5,12,18,8,9,5,7,"Briarcliff Health Center of Greenville, Inc",33.184259999999995,-96.11950999999999,Hunt,20677.0,344.61666666666673,6.62724358974359,0.16568108974358975
142,17,0,0,2,2,2,2,2,0,3,0,1,5,Briarcliff Nursing and Rehabilitation Center,26.21583,-98.23917,Hidalgo,4607.0,76.78333333333333,1.476602564102564,0.0369150641025641
143,50,3,5,5,6,6,5,5,9,6,6,3,3,Briarcliff Skilled Nursing Center,32.12895,-94.27705,Panola,15556.0,259.26666666666665,4.985897435897437,0.1246474358974359
145,42,5,4,5,6,2,5,3,5,2,2,4,3,Briarwood Nursing And Rehabilitation,29.65377,-95.28421999999999,Harris,12076.0,201.26666666666668,3.870512820512821,0.09676282051282052
146,43,4,3,6,7,3,6,6,5,9,6,2,2,"Bridgecrest Rehabiliation Suites, LLC",29.83413,-95.14734,Harris,11565.0,192.75,3.7067307692307687,0.09266826923076923
148,23,12,1,3,0,2,0,2,0,2,0,2,0,Bridgemoor Transitional Care of Round Rock,30.48988,-97.75371,Williamson,3921.0,65.35,1.2567307692307692,0.03141826923076923
149,27,3,1,2,1,3,2,4,2,5,2,3,4,Bridgemoor Transitional Care San Antonio,29.50555,-98.5722,Bexar,4463.0,74.38333333333334,1.430448717948718,0.03576121794871795
150,55,9,10,10,14,8,3,4,5,2,1,0,0,BRIDGEMOOR TRANSITIONAL CARE WEBSTER,29.537809999999997,-95.13687,Harris,13667.0,227.78333333333333,4.380448717948718,0.10951121794871796
151,4,0,1,0,0,1,0,0,0,0,0,0,2,Brightpointe At Lytle Lake,32.33948,-99.66982,Taylor,1260.0,21.0,0.40384615384615385,0.010096153846153848
152,159,16,16,17,21,21,22,20,20,12,11,3,5,BrightPointe at Rivershire,30.32957,-95.5141,Montgomery,43063.0,717.7166666666667,13.80224358974359,0.34505608974358976
155,117,17,14,14,12,8,14,7,16,4,7,7,8,Broadmoor Medical Lodge,32.85504,-96.42764,Rockwall,29525.0,492.08333333333326,9.463141025641026,0.23657852564102566
156,18,4,1,2,2,2,2,2,2,2,5,3,7,Brodie Ranch Nursing And Rehabilitation Center,30.16538,-97.82343,Travis,6702.0,111.7,2.148076923076923,0.053701923076923085
157,2,0,1,0,0,0,0,0,0,0,1,0,0,Bronte Health and Rehabilitation Center,31.86341,-100.28783,Coke,564.0,9.4,0.1807692307692308,0.0045192307692307684
158,98,4,13,8,11,7,14,11,11,12,10,7,9,Brookdale Alamo Heights,29.48906,-98.45671,Bexar,20114.0,335.23333333333335,6.446794871794872,0.1611698717948718
159,155,17,14,31,19,15,14,18,17,7,7,6,6,BROOKDALE BROADWAY CITYVIEW,32.667590000000004,-97.41797,Tarrant,42471.0,707.85,13.6125,0.3403125
160,157,12,14,19,19,10,16,12,14,10,16,12,18,Brookdale Galleria,29.74833,-95.46803,Harris,45797.0,763.2833333333333,14.67852564102564,0.366963141025641
161,56,1,6,2,6,4,7,4,8,4,6,2,7,Brookdale Guadalupe River Plaza,30.03422,-99.15819,Kerr,8170.0,136.16666666666666,2.618589743589744,0.0654647435897436
162,6,0,1,0,1,0,1,0,1,0,1,0,1,Brookdale Guadalupe River Plaza,30.03422,-99.15819,Kerr,666.0,11.1,0.21346153846153845,0.005336538461538461
163,80,15,7,7,6,5,4,3,6,7,8,5,11,Brookdale Lakeway Healthcare Center,30.378529999999998,-97.94960999999999,Travis,19956.0,332.6,6.396153846153847,0.15990384615384615
164,70,11,9,6,7,8,4,12,4,8,5,9,6,Brookdale Spicewood Springs,30.40268,-97.76105,Travis,17010.0,283.5,5.4519230769230775,0.1362980769230769
165,74,8,6,11,5,8,4,5,6,8,8,6,5,Brookdale Trinity Towers,27.798140000000004,-97.40096,Nueces,21264.0,354.4,6.815384615384616,0.17038461538461538
166,125,23,7,11,5,10,11,14,12,14,9,11,13,Brookdale Westlake Hills,30.297290000000004,-97.81054,Travis,30681.0,511.35,9.833653846153847,0.24584134615384615
167,11,1,0,3,2,1,3,4,2,1,2,1,1,Brookdale Willowbrook Place,29.977759999999996,-95.57315,Harris,3611.0,60.18333333333333,1.1573717948717948,0.028934294871794868
168,292,17,21,36,21,35,35,22,23,21,30,22,27,Brookdale Willowbrook Place Skilled Nursing,29.977759999999996,-95.57315,Harris,83888.0,1398.1333333333334,26.887179487179488,0.6721794871794872
169,31,4,2,4,7,5,4,3,10,5,4,2,1,Brookhaven Nursing and Rehabilitation Center,33.034240000000004,-96.89672,Denton,10927.0,182.11666666666667,3.50224358974359,0.08755608974358975
170,79,2,6,10,6,6,6,6,7,7,10,9,7,Brookhollow Heights Transitional Care Center,29.7986,-95.41754,Harris,22933.0,382.2166666666666,7.350320512820513,0.1837580128205128
172,1,0,0,0,0,0,1,0,0,0,0,0,0,Brownfield Regional Medical Center,33.14437,-102.31614,Terry,315.0,5.25,0.10096153846153846,0.0025240384615384612
173,10,0,0,1,1,0,3,1,0,2,1,0,1,Brownfield Rehabilitation and Care Center,33.14437,-102.31614,Terry,2820.0,47.0,0.903846153846154,0.022596153846153846
174,69,8,9,11,6,7,8,6,3,9,7,8,6,Brownsville Nursing and Rehabilitation Center,25.99101,-97.43946,Cameron,12871.0,214.51666666666668,4.1253205128205135,0.10313301282051283
175,11,1,2,3,0,2,0,1,1,1,0,0,3,"Brownwood Nursing and Rehabilitation, LP",31.7425,-99.03990999999999,Brown,3567.0,59.45,1.143269230769231,0.02858173076923077
178,7,2,0,1,0,1,0,1,0,1,0,1,0,Brush Country Nursing And Rehabilitation,30.213759999999997,-97.85821,Travis,1251.0,20.85,0.4009615384615385,0.010024038461538464
183,12,4,1,1,1,1,2,1,1,2,1,1,2,Buckner Villas,30.382040000000003,-97.67361,Travis,3444.0,57.4,1.1038461538461541,0.027596153846153847
184,3,0,1,0,1,0,0,0,0,0,0,0,1,Buckner Westminister Place,32.58258,-94.72065,Gregg,575.0,9.583333333333334,0.1842948717948718,0.004607371794871795
185,41,2,0,3,3,5,8,10,4,2,2,4,3,Buena Vida Nursing And Rehabilitation Center,29.36614,-98.37786,Bexar,6903.0,115.05,2.2125,0.0553125
186,14,0,0,0,0,0,3,3,3,0,2,0,3,Buena Vida Nursing and Rehabilitation Center at Odessa,31.92649,-102.35443000000001,Ector,4080.0,68.0,1.3076923076923077,0.032692307692307694
188,20,4,0,6,0,3,0,0,1,3,1,1,2,Burleson Saint Joseph Manor,30.53745,-96.67998,Burleson,5640.0,94.0,1.807692307692308,0.045192307692307684
190,20,1,1,3,2,2,4,1,1,3,1,3,0,Calder Woods,30.099729999999997,-94.17074000000001,Jefferson,5904.0,98.4,1.8923076923076925,0.04730769230769232
192,91,9,6,11,13,6,12,8,4,6,8,7,4,Cambridge Health and Rehabilitation Center,29.48,-95.68315,Fort Bend,27081.0,451.35,8.679807692307692,0.21699519230769232
193,8,1,0,0,2,1,1,0,1,0,0,1,1,Cameron Nursing and Rehabilitation Center,30.876109999999997,-96.90748,Milam,2058.0,34.3,0.6596153846153846,0.016490384615384615
195,77,10,10,12,7,11,10,6,7,4,3,5,2,Canton Oaks,32.51192,-95.88237,Van Zandt,22593.0,376.55,7.241346153846153,0.18103365384615386
199,22,3,2,4,0,3,3,1,1,2,1,3,0,Caprock Nursing and Rehabilitation Center,35.69979,-101.39788,Hutchinson,6006.0,100.1,1.925,0.048125
200,28,1,4,4,4,1,2,2,2,1,5,2,3,Capstone Healthcare Estates At Veterans Memorial,29.9186,-95.44169000000001,Harris,8028.0,133.8,2.5730769230769237,0.06432692307692309
201,31,5,2,5,4,2,0,1,0,0,2,3,9,Capstone Healthcare Estates on Orem,29.635709999999996,-95.43306,Harris,8907.0,148.45,2.854807692307692,0.0713701923076923
202,14,2,1,1,2,0,1,2,1,2,2,0,1,CARADAY WESTERN HILLS,31.13807000000001,-97.37258,Bell,4080.0,68.0,1.3076923076923077,0.032692307692307694
204,1,0,0,0,0,0,0,0,0,1,0,0,0,Care Choice Of Boerne,29.85533,-98.72266,Kendall,77.0,1.2833333333333334,0.024679487179487185,0.0006169871794871795
206,22,2,7,2,2,2,1,2,4,3,2,0,2,Care Inn of La Grange,29.91566,-96.88946999999999,Fayette,8118.0,135.3,2.601923076923077,0.06504807692307693
209,18,0,0,2,2,3,4,1,1,1,1,2,1,Care Nursing and Rehabilitation Center,31.75327,-98.90283000000001,Brown,4746.0,79.1,1.521153846153846,0.03802884615384615
211,67,5,6,8,6,9,10,4,9,2,4,6,8,Carillon House,33.60429,-101.97648000000001,Lubbock,17055.0,284.25,5.466346153846153,0.13665865384615386
213,80,11,18,13,9,7,8,9,7,3,7,2,0,Carrara,33.0355,-96.81000999999999,Collin,20574.0,342.9,6.5942307692307685,0.16485576923076922
214,51,5,4,3,9,10,4,6,7,2,2,2,2,Carriage House Manor,33.16816,-95.60681,Hopkins,15041.0,250.6833333333333,4.820833333333334,0.12052083333333335
215,12,5,1,0,0,1,1,1,1,1,1,1,1,"Carrizo Springs Nursing and Rehabilitation, LP",28.46432,-99.92139,Dimmit,3516.0,58.6,1.1269230769230771,0.02817307692307692
216,11,0,0,0,2,3,2,3,1,1,0,1,3,Carrollton Health And Rehabilitation Center,32.96188,-96.89701,Dallas,3343.0,55.71666666666667,1.071474358974359,0.02678685897435897
218,17,1,1,1,0,4,0,1,2,0,2,3,2,Carthage Healthcare Center,32.12895,-94.27705,Panola,4459.0,74.31666666666666,1.4291666666666667,0.03572916666666666
220,23,0,3,3,2,1,2,6,2,3,3,1,2,Castle Pines Health and Rehabilitation Center,31.33969,-94.82173,Angelina,6441.0,107.35,2.064423076923077,0.051610576923076926
225,62,5,6,9,6,6,6,11,5,3,6,2,5,CC Young Retirement Community,32.82867,-96.74542,Dallas,15950.0,265.8333333333333,5.112179487179487,0.12780448717948714
226,4,0,0,0,0,0,0,1,0,0,0,2,2,Cedar Creek Nursing and Rehabilitation Center,29.709590000000002,-99.09413,Bandera,1322.0,22.03333333333333,0.4237179487179488,0.010592948717948721
229,2,1,0,0,0,0,0,0,1,1,1,0,0,Cedar Hill Healthcare Center,32.58039,-96.96618000000001,Dallas,800.0,13.333333333333336,0.25641025641025644,0.006410256410256411
231,37,6,0,7,3,3,3,3,7,1,2,3,1,Cedar Lake Nursing Home,32.12462,-96.01216,Henderson,10335.0,172.25,3.3125,0.0828125
233,19,3,0,2,1,2,0,2,0,3,1,3,2,Cedar Pointe Health and Wellness Suites,30.50395,-97.82463,Williamson,3747.0,62.45,1.2009615384615384,0.030024038461538463
234,7,0,0,2,1,0,0,1,1,2,0,0,1,Centerville Healthcare Center,31.26718,-95.83899,Leon,2139.0,35.65,0.6855769230769231,0.017139423076923076
237,4,0,0,0,0,0,1,0,0,0,1,1,1,Central Texas Nursing and Rehabilitation,31.7387,-99.93626,Runnels,930.0,15.5,0.2980769230769231,0.007451923076923075
239,12,2,2,0,0,2,2,1,2,1,0,1,0,Chandler Nursing Center,32.275420000000004,-95.50733000000001,Henderson,2988.0,49.8,0.9576923076923076,0.02394230769230769
241,17,0,1,2,2,4,0,3,0,1,1,4,1,Chelsea Gardens,29.52569,-95.53299999999999,Fort Bend,5063.0,84.38333333333334,1.6227564102564105,0.04056891025641026
242,14,2,2,0,1,0,2,1,3,0,0,1,4,Cherokee Rose Nursing and Rehabilitation,32.20528,-97.79713000000001,Somervell,4288.0,71.46666666666667,1.3743589743589744,0.034358974358974365
243,3,0,0,1,0,1,0,0,1,0,0,0,0,Cherokee Trails Rehab and Healthcare,31.77995,-95.17381,Cherokee,1077.0,17.95,0.3451923076923077,0.008629807692307692
244,17,3,2,5,3,2,1,2,0,1,0,1,0,Cheyenne Medical Lodge,32.77003,-96.61487,Dallas,4637.0,77.28333333333333,1.4862179487179488,0.03715544871794872
245,4,2,2,0,0,0,0,0,0,0,0,0,0,Chi Saint Joseph Health Burleson Hospital,30.53745,-96.67998,Burleson,996.0,16.6,0.3192307692307693,0.00798076923076923
246,8,2,1,0,0,1,1,4,0,0,0,0,0,Chi Saint Joseph Health Grimes Hospital,30.3686,-96.0616,Grimes,2124.0,35.4,0.6807692307692308,0.01701923076923077
247,4,4,1,0,0,0,0,0,0,0,0,0,0,CHI Saint Joseph Skilled and Rehabilitation Center,30.66126,-96.32265,Brazos,1128.0,18.8,0.3615384615384615,0.00903846153846154
249,5,0,0,0,0,0,1,1,0,0,1,1,1,Childress Healthcare Center,34.43714,-100.28085,Childress,1443.0,24.05,0.4625,0.0115625
250,4,0,0,3,0,0,0,0,0,0,0,0,1,Childress Regional Medical Center,34.43714,-100.28085,Childress,996.0,16.6,0.3192307692307693,0.00798076923076923
252,25,3,4,2,2,1,1,1,2,3,1,3,2,Chisolm Trail Nursing And Rehabilitation Center,29.870490000000004,-97.67528,Caldwell,5799.0,96.65,1.8586538461538464,0.046466346153846164
253,20,4,1,0,2,1,2,1,3,0,3,1,3,Christian Care Center,33.37363,-94.13141999999999,Bowie,4470.0,74.5,1.4326923076923077,0.03581730769230769
254,77,11,11,12,7,5,6,7,9,2,3,5,6,Christian Care Nursing And Rehabilitation,32.81577,-96.63039,Dallas,21209.0,353.4833333333333,6.797756410256411,0.16994391025641026
255,1,0,0,0,0,1,0,0,0,0,0,0,0,CHRISTUS Jasper Memorial Hospital,30.941509999999997,-94.05383,Jasper,381.0,6.35,0.1221153846153846,0.0030528846153846157
256,5,0,1,1,1,0,1,1,0,0,0,0,0,Christus Mother Frances Hospital - Winnsboro,32.90938,-95.26235,Hopkins,1311.0,21.85,0.4201923076923077,0.010504807692307692
257,26,2,2,5,5,3,2,4,4,0,0,0,0,Christus Mother Frances Hospital Jacksonville,31.9462,-95.25704,Cherokee,6408.0,106.8,2.0538461538461537,0.05134615384615384
262,9,0,0,0,1,2,1,1,1,2,1,0,0,CHRISTUS Spohn Hospital Corpus Christi Memorial,27.77425,-97.43876,Nueces,2307.0,38.45,0.739423076923077,0.018485576923076924
263,2,0,0,0,0,1,0,1,0,0,0,0,0,CHRISTUS Spohn Hospital Corpus Christi Shoreline,27.76805,-97.39899,Nueces,564.0,9.4,0.1807692307692308,0.0045192307692307684
267,36,2,5,4,3,2,1,5,4,4,8,4,3,Cibolo Creek,29.85533,-98.72266,Kendall,11006.0,183.4333333333333,3.5275641025641025,0.08818910256410256
268,17,1,1,0,0,2,6,3,3,2,1,2,3,CIMARRON PARK NURSING AND REHABILITATION CENTER,31.892459999999996,-106.54251000000001,El Paso,3315.0,55.25,1.0625,0.0265625
269,38,3,5,3,1,2,2,3,6,3,7,3,5,Cimarron Place Health and Rehabilitation Center,27.6603,-97.36893,Nueces,12960.0,216.0,4.153846153846153,0.10384615384615384
270,14,0,1,1,1,3,4,1,1,1,0,3,0,Cisco Nursing And Rehabilitation,32.39591,-99.02367,Eastland,4052.0,67.53333333333333,1.2987179487179488,0.03246794871794872
271,2,0,1,0,0,0,1,0,0,0,0,0,0,Citizens Medical Center Skilled Nursing Unit,28.80493,-96.98473,Victoria,366.0,6.1,0.11730769230769232,0.002932692307692308
272,20,2,0,3,2,1,2,3,3,2,4,2,3,Cityview Nursing And Rehabilitation Center,32.667590000000004,-97.41797,Tarrant,7316.0,121.93333333333334,2.344871794871795,0.05862179487179488
273,79,10,12,8,6,11,9,8,10,2,3,3,3,Clairmont of Beaumont,30.05295,-94.17654,Jefferson,24027.0,400.45,7.700961538461537,0.19252403846153845
274,16,0,1,2,4,1,1,1,1,1,1,2,1,Clarewood House,29.70167,-95.53594,Harris,4776.0,79.6,1.5307692307692309,0.03826923076923077
275,43,2,5,5,4,3,4,7,6,7,3,3,4,Clarksville Nursing Center,33.655390000000004,-95.00488,Red River,10157.0,169.28333333333333,3.2554487179487177,0.08138621794871795
276,3,0,0,0,0,0,1,0,0,1,0,1,0,Clay County Memorial Hospital,33.75812,-98.20161999999999,Clay,747.0,12.45,0.2394230769230769,0.005985576923076922
278,20,2,2,2,1,3,1,0,2,3,2,1,3,Clear Brook Crossing Rehabilitation and Healthcare Center,29.58675,-95.22525,Harris,5394.0,89.9,1.728846153846154,0.04322115384615385
280,134,15,21,14,16,21,13,11,14,13,6,15,11,Cleveland Health Care Center,30.321540000000002,-94.92631,Liberty,35884.0,598.0666666666667,11.501282051282052,0.2875320512820513
281,2,0,0,0,0,0,0,1,1,0,0,0,0,"Clifton Nursing and Rehabilitation Center, LP",31.80782,-97.56147,Bosque,498.0,8.3,0.15961538461538466,0.003990384615384615
282,3,1,0,1,1,0,1,0,0,0,0,0,0,Clyde Nursing Center,32.27507,-99.52899000000001,Callahan,1077.0,17.95,0.3451923076923077,0.008629807692307692
283,4,0,0,0,0,0,0,1,2,2,2,0,1,Clyde W Cosper Texas State Veterans Home,33.57268,-96.17766,Fannin,1770.0,29.5,0.5673076923076923,0.01418269230769231
284,21,1,2,3,1,1,3,2,2,4,2,1,1,Coastal Palms Nursing And Rehabilitation,27.89798,-97.37805,San Patricio,6417.0,106.95,2.0567307692307693,0.05141826923076923
285,6,1,0,1,0,1,0,1,0,1,0,1,0,Cogdell Memorial Hospital,32.91367,-100.84508000000001,Scurry,1074.0,17.9,0.34423076923076923,0.008605769230769231
288,1,0,0,0,0,0,0,1,0,0,0,0,0,Coleman County Medical Center,31.87437000000001,-99.47038,Coleman,117.0,1.95,0.0375,0.0009375
289,6,0,0,0,0,0,0,1,1,0,1,1,2,Coleman Healthcare Center,31.87437000000001,-99.47038,Coleman,1692.0,28.2,0.5423076923076923,0.013557692307692307
290,187,21,25,25,35,20,29,25,26,18,22,23,30,College Park Rehabilitation and Care Center,32.75481,-97.78995,Parker,56725.0,945.4166666666665,18.181089743589748,0.4545272435897436
291,12,0,2,1,1,4,1,0,3,0,0,0,1,College Street Nursing Center,30.05295,-94.17654,Jefferson,3252.0,54.2,1.0423076923076924,0.02605769230769231
292,1,0,0,0,0,0,0,0,1,0,0,0,0,Collingsworth General Hospital,34.896159999999995,-100.2061,Collingsworth,117.0,1.95,0.0375,0.0009375
293,6,0,2,1,1,3,2,3,0,0,1,0,0,Collinwood Nursing And Rehabilitation,33.0319,-96.67429,Collin,1998.0,33.3,0.6403846153846153,0.016009615384615386
294,8,1,0,1,0,2,1,0,1,1,0,0,2,Colonial Belle Nursing Home,29.978790000000004,-96.25057,Austin,2586.0,43.1,0.8288461538461539,0.020721153846153847
295,2,0,0,0,0,0,0,0,0,1,0,1,0,Colonial Belle Nursing Home Sealy,29.77377000000001,-96.17926,Austin,564.0,9.4,0.1807692307692308,0.0045192307692307684
296,5,0,0,0,0,0,1,1,1,1,0,0,1,Colonial Care Center,29.687929999999998,-96.93415,Fayette,1377.0,22.95,0.4413461538461538,0.011033653846153846
298,66,6,6,12,9,8,8,6,9,9,8,7,4,Colonial Manor Advanced Rehab and Healthcare,26.150470000000002,-98.19104,Hidalgo,19524.0,325.4,6.257692307692308,0.15644230769230769
299,11,0,1,1,1,0,2,0,2,2,4,1,1,Colonial Manor Nursing And Rehabilitation Center,29.69772,-98.0702,Comal,2717.0,45.28333333333333,0.8708333333333333,0.02177083333333333
300,4,0,0,0,1,0,0,0,0,1,1,1,0,Colonial Manor Nursing Center,32.285109999999996,-97.51137,Johnson,1326.0,22.1,0.425,0.010625
301,84,10,9,9,11,11,6,7,13,5,7,1,2,Colonial Nursing and Rehabilitation Center,32.5361,-95.43456,Smith,25272.0,421.2,8.1,0.2025
306,40,3,2,7,5,3,7,8,6,3,7,6,6,Colonial Pines Healthcare Center,31.49499,-94.12708,San Augustine,13054.0,217.56666666666663,4.183974358974359,0.10459935897435896
309,1,0,0,0,0,0,0,0,1,0,0,0,0,Columbus Community Hospital,29.69375,-96.56013,Colorado,315.0,5.25,0.10096153846153846,0.0025240384615384612
311,4,1,2,1,0,0,0,0,0,0,0,0,0,Columbus Oaks Healthcare Community,29.69375,-96.56013,Colorado,1194.0,19.9,0.3826923076923077,0.009567307692307693
312,7,0,0,2,0,0,1,1,3,0,0,0,0,Comanche County Medical Center,31.89183,-98.61491,Comanche,1941.0,32.35,0.6221153846153846,0.015552884615384616
313,13,0,0,1,3,1,1,2,3,4,1,0,0,Community Care Center,31.2935,-95.49194,Houston,4199.0,69.98333333333333,1.3458333333333334,0.03364583333333333
315,9,0,0,2,0,0,1,0,0,0,2,2,3,Community Care Center Of Hondo,29.4267,-99.15448,Medina,2633.0,43.88333333333333,0.8439102564102564,0.02109775641025641
317,4,0,0,0,1,0,0,1,1,0,1,0,0,Concho County Hospital,31.2208,-99.89594,Concho,1128.0,18.8,0.3615384615384615,0.00903846153846154
318,4,0,0,0,0,0,1,1,1,1,0,1,1,Concho Health and Rehabilitation Center,31.2208,-99.89594,Concho,1430.0,23.83333333333333,0.4583333333333333,0.01145833333333333
320,116,6,7,11,16,17,14,14,19,14,7,8,14,Conroe Healthcare Center,30.30792000000001,-95.43426,Montgomery,30218.0,503.63333333333327,9.685256410256413,0.2421314102564103
321,32,2,6,6,4,6,3,1,5,5,8,5,4,Continuing Care At Highland Springs,32.997279999999996,-96.79091,Collin,10262.0,171.03333333333333,3.289102564102564,0.0822275641025641
324,2,0,0,0,0,0,0,1,1,0,0,0,0,Coon Memorial Hospital,36.106609999999996,-102.61108,Dallam,498.0,8.3,0.15961538461538466,0.003990384615384615
328,8,2,1,0,0,1,1,1,0,0,0,1,1,Copperas Cove Nursing and Rehabilitation,31.21606,-97.97338,Coryell,2190.0,36.5,0.7019230769230769,0.017548076923076927
329,4,0,1,0,2,0,0,0,0,0,1,0,0,Copperas Hollow Nursing and Rehabilitation Center,30.53745,-96.67998,Burleson,930.0,15.5,0.2980769230769231,0.007451923076923075
330,95,9,11,8,11,9,5,6,12,15,2,5,6,Copperfield Healthcare and Rehabilitation,29.90819,-95.65323000000001,Harris,27503.0,458.38333333333327,8.8150641025641,0.22037660256410255
331,60,5,4,10,10,7,10,6,5,5,10,6,2,Corinth Rehabilitation Suites on the Parkway,33.20883,-97.05736,Denton,15158.0,252.63333333333333,4.858333333333333,0.12145833333333332
332,11,1,0,1,2,3,1,2,1,0,1,0,0,Cornerstone Gardens Healthcare and Rehabilitation,31.096220000000002,-97.41034,Bell,3267.0,54.45,1.047115384615385,0.026177884615384617
333,20,1,2,2,3,2,2,1,4,0,2,0,2,Cornerstone Retirement Community,33.51343,-94.13056999999999,Bowie,3714.0,61.9,1.1903846153846154,0.02975961538461538
334,109,14,12,15,12,10,9,9,16,13,9,7,4,Coronado at Stone Oak,29.6337,-98.49605,Bexar,26305.0,438.41666666666674,8.431089743589745,0.2107772435897436
335,4,0,0,2,1,0,0,1,0,0,0,0,0,Coronado Healthcare Center,35.54207,-100.89976999999999,Gray,1194.0,19.9,0.3826923076923077,0.009567307692307693
336,4,1,0,0,0,2,1,0,0,0,0,0,0,Coronado Nursing And Rehab,32.40153,-99.88473,Taylor,996.0,16.6,0.3192307692307693,0.00798076923076923
341,18,0,1,3,2,0,1,2,4,2,1,2,0,Corpus Christi Nursing and Rehabilitation Center,27.6603,-97.36893,Nueces,5274.0,87.9,1.6903846153846156,0.04225961538461539
342,19,1,3,4,4,4,4,4,4,4,4,4,5,Corrigan LTC Nursing and Rehabilitation Center,31.01825,-94.79404,Polk,7209.0,120.15,2.310576923076923,0.057764423076923074
343,2,0,0,1,0,0,0,1,0,0,0,0,0,Coryell Memorial Healthcare System,31.42046,-97.76154,Coryell,358.0,5.966666666666668,0.11474358974358975,0.002868589743589744
344,24,2,1,4,4,3,4,5,4,3,4,4,5,Cottonwood Creek Healthcare Community,32.97395,-96.74203,Dallas,10708.0,178.46666666666667,3.4320512820512823,0.08580128205128205
346,5,1,0,0,1,2,0,1,0,0,0,0,0,"Cottonwood Nursing and Rehabilitation, LP",33.22113,-97.14723000000001,Denton,1179.0,19.65,0.3778846153846154,0.009447115384615384
347,26,1,2,3,4,1,4,1,0,2,4,5,4,Country Care Manor,29.35147000000001,-98.10722,Wilson,5438.0,90.63333333333334,1.742948717948718,0.04357371794871795
348,3,1,0,1,0,0,0,0,0,0,0,1,0,"Country Club Nursing and Rehabilitation, LP",35.203179999999996,-101.89519,Potter,813.0,13.55,0.2605769230769231,0.006514423076923077
350,17,1,2,1,2,4,2,1,2,0,1,0,1,Country Meadows Nursing and Rehabilitation Center,32.086929999999995,-96.52879,Navarro,4497.0,74.95,1.4413461538461538,0.03603365384615385
353,4,0,0,0,0,0,2,0,2,0,0,0,0,Country View Nursing And Rehabilitation,32.76168,-96.30018000000001,Kaufman,996.0,16.6,0.3192307692307693,0.00798076923076923
354,82,6,5,8,9,7,8,9,12,3,4,6,10,Country Village Care,29.17431,-95.44986999999999,Brazoria,24704.0,411.73333333333335,7.917948717948718,0.197948717948718
355,28,0,0,1,2,3,6,7,4,1,8,10,7,"Countryside Nursing and Rehabilitation, LP",33.3719,-96.91965,Denton,7678.0,127.96666666666668,2.460897435897436,0.0615224358974359
357,5,0,0,0,0,1,0,1,0,1,0,1,1,Courtyard Nursing And Rehabilitation Center,29.68612000000001,-95.30343,Harris,1443.0,24.05,0.4625,0.0115625
361,2,0,0,0,0,0,0,2,0,0,0,0,0,Covenant Hospital Plainview,34.17157,-101.73864,Hale,498.0,8.3,0.15961538461538466,0.003990384615384615
363,4,0,0,0,2,0,1,0,0,0,0,1,0,Crane Memorial Hospital,31.41809000000001,-102.4833,Crane,1062.0,17.7,0.3403846153846154,0.008509615384615385
365,3,3,0,0,0,0,0,0,0,0,0,0,0,Creekside Terrace Rehabilitation,31.05136,-97.49967,Bell,879.0,14.65,0.28173076923076923,0.007043269230769231
366,3,0,0,1,0,0,1,0,0,0,0,0,1,Creekside Village Healthcare,29.049359999999997,-95.39242,Brazoria,945.0,15.75,0.30288461538461536,0.007572115384615385
367,81,8,3,11,6,15,12,7,14,5,7,3,3,Crestview Court,32.58039,-96.96618000000001,Dallas,25221.0,420.35,8.083653846153847,0.2020913461538462
368,9,0,0,1,0,1,2,2,3,1,0,0,0,"Crestview Healthcare Residence, Ltd",31.62687,-97.21135,McLennan,2439.0,40.65,0.7817307692307692,0.019543269230769232
369,31,7,2,3,3,6,0,1,1,1,2,3,2,Crestview Manor Nursing and Rehabilitation Center,31.05136,-97.49967,Bell,8775.0,146.25,2.8125,0.0703125
370,38,7,2,2,4,2,7,7,4,4,1,2,2,Crestview Retirement Community,30.66126,-96.32265,Brazos,11744.0,195.7333333333333,3.764102564102564,0.0941025641025641
371,32,0,1,5,4,1,2,6,2,6,2,0,5,Crestwood Health and Rehab,32.70454,-95.99656999999999,Van Zandt,8864.0,147.73333333333332,2.8410256410256407,0.07102564102564103
372,18,1,3,2,6,6,4,6,3,2,0,0,0,CRIMSON HEIGHTS HEALTH and WELLNESS,30.006790000000002,-95.29018,Harris,5294.0,88.23333333333332,1.6967948717948718,0.042419871794871784
376,1,0,0,1,0,0,0,0,0,0,0,0,0,Crosbyton Nursing and Rehabilitation Center,33.65766,-101.18732,Crosby,117.0,1.95,0.0375,0.0009375
378,40,4,2,8,2,6,7,3,4,6,1,2,2,Cross Timbers Rehabilitation and Healthcare Center,33.0328,-97.06085999999999,Denton,12580.0,209.66666666666663,4.032051282051282,0.10080128205128204
380,15,2,1,2,0,0,0,1,3,0,1,2,3,Crossroads Nursing And Rehabilitation,30.869320000000002,-96.51734,Robertson,3603.0,60.05,1.1548076923076922,0.028870192307692305
381,3,0,0,1,0,0,0,0,0,0,1,0,1,Crowell Nursing Center,33.89959,-99.77069,Foard,615.0,10.25,0.1971153846153846,0.004927884615384615
382,180,20,19,20,16,17,15,18,15,17,17,17,19,Crown Point Health Suites,33.46993,-101.94095,Lubbock,44388.0,739.8,14.226923076923075,0.3556730769230769
383,107,9,10,12,13,17,16,12,12,7,11,9,9,Crystal Creek Preston Hollow,32.91211,-96.73563,Dallas,26813.0,446.88333333333327,8.593910256410256,0.2148477564102564
384,22,2,1,1,5,1,1,1,0,4,2,2,2,Cuero Partners,29.096740000000004,-97.28269,DeWitt,5610.0,93.5,1.7980769230769231,0.044951923076923084
386,7,3,1,1,2,1,1,0,0,0,0,0,0,Cypress Creek Rehabilitation and Healthcare Center,29.99104,-95.65878000000001,Harris,1901.0,31.68333333333333,0.6092948717948719,0.015232371794871797
389,15,1,6,1,3,3,1,0,0,0,0,1,2,Cypress Woods Care Center,29.17431,-95.44986999999999,Brazoria,4329.0,72.15,1.3875000000000002,0.0346875
390,3,2,0,0,0,0,0,0,0,0,1,0,0,Cypresswood Health and Rehabilitation Center,29.922179999999997,-95.54705,Harris,609.0,10.15,0.1951923076923077,0.004879807692307692
394,33,4,3,3,5,5,5,5,6,6,7,7,5,Deer Creek of Wimberley Nursing Center,30.03288,-98.1459,Hays,10779.0,179.65,3.454807692307692,0.0863701923076923
395,99,5,7,14,7,20,8,9,7,7,8,7,12,Deerbrook Skilled Nursing And Rehabilitation,30.006790000000002,-95.29018,Harris,27459.0,457.65,8.800961538461538,0.22002403846153845
396,16,0,2,3,1,1,1,0,1,2,2,0,4,"Deerings Nursing and Rehabilitation, LP",31.79918,-102.46788000000001,Ector,5304.0,88.4,1.7000000000000002,0.0425
397,28,3,2,4,2,3,1,0,3,3,3,5,4,Del Rio Nursing and Rehabilitation Center,29.742109999999997,-100.88273000000001,Val Verde,8554.0,142.56666666666666,2.7416666666666667,0.06854166666666668
398,21,0,5,4,1,2,1,1,1,4,2,0,1,"DeLeon Nursing and Rehabilitation, LP",32.114709999999995,-98.56571,Comanche,6351.0,105.85,2.035576923076923,0.05088942307692308
399,6,0,0,0,2,0,0,0,1,1,1,1,0,"Denison Nursing and Rehabilitation, LP",33.72616,-96.47326,Grayson,1626.0,27.1,0.5211538461538462,0.013028846153846156
400,85,9,13,5,8,14,13,7,10,10,4,6,2,Denton Rehabilitation and Nursing Center,33.22113,-97.14723000000001,Denton,22479.0,374.65,7.204807692307693,0.1801201923076923
403,1,0,0,0,0,0,1,1,1,0,0,0,0,Desoto Nursing And Rehabilitation,32.59884,-96.86375,Dallas,777.0,12.95,0.2490384615384615,0.006225961538461538
406,12,0,1,0,1,0,1,0,0,2,5,2,2,Devine Health and Rehabilitation,29.183590000000002,-98.96601,Medina,3240.0,54.0,1.0384615384615383,0.025961538461538463
407,8,1,1,1,2,2,2,2,1,1,1,1,2,Dfw Nursing And Rehabilitation,32.7287,-97.31777,Tarrant,2078.0,34.63333333333333,0.666025641025641,0.016650641025641025
408,15,1,3,2,2,1,0,0,1,3,2,0,0,Dimmit Regional Hospital,28.46432,-99.92139,Dimmit,4263.0,71.05,1.366346153846154,0.03415865384615385
409,28,2,3,4,5,6,2,3,1,5,3,2,0,Diversicare of Lake Highlands,32.87853,-96.70782,Dallas,9090.0,151.5,2.9134615384615383,0.07283653846153845
410,13,0,0,0,2,1,2,1,2,2,3,1,1,Diversicare of Luling,29.691059999999997,-97.6345,Caldwell,4029.0,67.15,1.2913461538461541,0.03228365384615385
415,9,0,1,1,2,2,2,3,3,2,3,2,2,Dogwood Trails Manor,30.7763,-94.4015,Tyler,4197.0,69.95,1.3451923076923078,0.033629807692307695
416,2,1,0,1,0,0,0,0,0,0,0,0,0,Dovehill Healthcare Center and Villas,31.6858,-98.18813,Hamilton,564.0,9.4,0.1807692307692308,0.0045192307692307684
417,9,1,1,2,2,1,1,1,1,1,1,1,1,Downtown Health and Rehabilitation Center,32.7287,-97.31777,Tarrant,2737.0,45.61666666666667,0.8772435897435897,0.021931089743589743
418,26,2,3,4,2,1,4,5,7,2,2,0,0,Duncanville Healthcare and Rehabilitation Center,32.66017,-96.91393000000001,Dallas,9180.0,153.0,2.9423076923076925,0.07355769230769231
419,12,0,0,1,3,1,3,0,0,0,0,2,3,Eagle Lake Nursing And Rehabilitation,29.525679999999998,-96.30213,Colorado,3318.0,55.3,1.0634615384615385,0.02658653846153846
421,30,4,4,3,4,1,5,2,3,1,2,2,3,Eagle Pass Nursing and Rehabilitation,28.752059999999997,-100.31076,Maverick,8130.0,135.5,2.605769230769231,0.06514423076923077
422,20,2,1,0,3,1,0,1,3,2,1,2,6,Eagles Trace,29.75012000000001,-95.61547,Harris,6234.0,103.9,1.998076923076923,0.049951923076923074
423,15,0,0,1,1,0,3,4,1,2,2,1,1,Eastland Memorial Hospital,32.40016,-98.80082,Eastland,4329.0,72.15,1.3875000000000002,0.0346875
424,7,1,1,0,0,2,0,0,0,0,0,2,1,Eastland Nursing and Rehabilitation,32.40016,-98.80082,Eastland,2007.0,33.45,0.6432692307692308,0.016081730769230772
426,45,5,6,4,5,6,4,5,8,8,7,7,5,Ebony Lake Nursing and Rehabilitation Center,25.96396,-97.55009,Cameron,12141.0,202.35,3.8913461538461536,0.09728365384615384
427,72,10,5,8,9,9,7,7,6,11,7,9,5,"Eden Home, Inc",29.69772,-98.0702,Comal,15242.0,254.03333333333333,4.88525641025641,0.12213141025641025
429,13,2,1,2,0,2,0,2,0,2,0,2,0,Edgewater Care Center,30.03422,-99.15819,Kerr,2193.0,36.55,0.7028846153846153,0.017572115384615384
430,32,4,3,4,5,3,2,0,6,1,4,0,1,Edgewood Manor Nursing Home,33.51343,-94.13056999999999,Bowie,7260.0,121.0,2.3269230769230766,0.058173076923076925
431,31,1,3,1,5,3,5,2,4,1,2,2,3,Edgewood Rehabilitation and Care Center,32.77003,-96.61487,Dallas,8973.0,149.55,2.8759615384615387,0.07189903846153847
432,17,0,0,2,1,1,0,4,1,3,2,1,4,Edinburg Nursing and Rehabilitation Center,26.27915,-98.18321,Hidalgo,4169.0,69.48333333333333,1.3362179487179486,0.03340544871794872
435,12,0,1,1,1,2,1,0,3,2,1,0,1,El Campo Memorial Hospital,29.213040000000003,-96.28036,Wharton,3516.0,58.6,1.1269230769230771,0.02817307692307692
436,69,6,4,9,5,9,7,6,3,5,9,12,8,El Paso Health and Rehabilitation Center,31.77618,-106.29785,El Paso,20903.0,348.38333333333327,6.699679487179487,0.16749198717948716
437,5,0,1,0,0,0,2,0,2,1,0,0,0,Electra Healthcare Center,33.96894,-98.96631,Wichita,1443.0,24.05,0.4625,0.0115625
438,6,0,1,1,2,1,1,0,0,0,0,0,0,Electra Memorial Hospital,33.96894,-98.96631,Wichita,1692.0,28.2,0.5423076923076923,0.013557692307692307
439,30,2,2,1,4,3,1,2,4,5,4,1,2,Elgin Nursing and Rehabilitation Center,30.3385,-97.36146,Bastrop,6474.0,107.9,2.075,0.051875
441,3,0,1,1,0,0,0,0,0,1,0,1,0,Elkhart Oaks Care Center,31.605999999999998,-95.5779,Anderson,1143.0,19.05,0.3663461538461539,0.009158653846153848
443,34,4,3,2,1,1,4,9,2,1,4,7,6,Emerald Hills Rehabilitation and Healthcare Center,32.83996,-97.22499,Tarrant,8538.0,142.3,2.7365384615384616,0.06841346153846152
445,10,0,2,1,2,2,2,1,1,0,2,0,0,Ennis Care Center,32.32976,-96.59334,Ellis,3188.0,53.13333333333333,1.0217948717948715,0.025544871794871797
447,19,3,0,1,0,2,4,3,2,2,3,2,4,Epic Nursing And Rehabilitation,32.086929999999995,-96.52879,Navarro,6127.0,102.11666666666666,1.9637820512820512,0.04909455128205128
448,15,2,1,2,2,2,2,3,4,4,3,2,3,Estates Healthcare and Rehabilitation Center,32.64274,-97.33353000000001,Tarrant,5075.0,84.58333333333333,1.6266025641025639,0.0406650641025641
450,42,0,5,2,4,5,7,4,6,4,4,3,3,Estrella Oaks Rehabilitation And Care Center,30.641090000000002,-97.75111,Williamson,9258.0,154.3,2.9673076923076924,0.07418269230769231
451,2,0,0,1,1,0,0,0,0,0,0,0,0,Evergreen Healthcare Center,34.09738,-98.62144,Wichita,498.0,8.3,0.15961538461538466,0.003990384615384615
453,18,2,2,2,2,1,2,4,1,0,1,0,2,Fairfield Nursing and Rehabilitation Center,31.782359999999997,-96.089,Freestone,5604.0,93.4,1.7961538461538462,0.04490384615384616
454,7,1,1,1,1,0,1,0,0,1,1,1,0,"Fairview Healthcare Residence, Ltd",31.782359999999997,-96.089,Freestone,2271.0,37.85,0.7278846153846155,0.018197115384615388
456,5,0,1,1,1,0,1,0,0,0,0,1,0,Faith Community Hospital,33.21795,-98.1877,Jack,1443.0,24.05,0.4625,0.0115625
458,20,0,1,3,2,4,6,3,4,1,0,0,1,Faith Memorial Nursing Home,29.679509999999997,-95.19977,Harris,4916.0,81.93333333333334,1.5756410256410258,0.03939102564102565
459,1,0,0,0,0,0,0,0,0,0,0,1,0,Falcon Lake Nursing Home,26.930979999999998,-99.15507,Zapata,315.0,5.25,0.10096153846153846,0.0025240384615384612
460,24,2,1,2,2,2,0,2,1,3,2,5,2,Falcon Ridge Rehabilitation,30.55906,-97.54472,Williamson,4650.0,77.5,1.4903846153846154,0.03725961538461538
461,16,2,2,1,3,1,3,1,1,0,2,0,2,Falfurrias Nursing And Rehabilitation,27.19012,-98.20251,Brooks,3944.0,65.73333333333333,1.264102564102564,0.0316025641025641
464,45,4,4,5,4,4,4,8,9,10,4,4,8,Fall Creek Rehabilitation And Healthcare Center,29.948209999999996,-95.25986999999999,Harris,11301.0,188.35,3.622115384615384,0.0905528846153846
466,15,3,4,5,4,4,3,2,0,1,2,0,0,Farmersville Health And Rehabilitation,33.17365,-96.35309000000001,Collin,4589.0,76.48333333333333,1.4708333333333334,0.036770833333333336
467,7,1,1,1,0,1,0,1,0,1,0,1,0,Farwell Care and Rehabilitation Center,34.41493,-102.94,Parmer,981.0,16.35,0.31442307692307697,0.007860576923076925
468,5,0,1,1,0,1,2,1,0,0,1,1,1,Fireside Lodge Healthcare Center,32.77444000000001,-97.40272,Tarrant,1923.0,32.05,0.6163461538461538,0.015408653846153844
471,6,2,0,2,0,0,0,1,1,1,0,0,0,Flatonia Oak Manor Rehabilitation and Nursing Center,29.742729999999998,-97.15231,Fayette,1956.0,32.6,0.6269230769230769,0.015673076923076918
472,15,1,4,1,2,1,2,0,0,0,1,2,3,Floresville Nursing and Rehabilitation Center,29.11822,-98.2018,Wilson,4323.0,72.05,1.3855769230769228,0.034639423076923075
475,12,0,2,0,4,0,1,0,2,0,1,1,1,Focus Care at Linden,33.00609,-94.38963000000001,Cass,2496.0,41.6,0.8,0.02
476,38,3,3,4,6,8,5,2,3,2,1,3,2,Focus Care Gilmer,32.7951,-94.99552,Upshur,10632.0,177.2,3.407692307692308,0.08519230769230769
477,20,2,3,2,3,1,2,4,3,0,0,1,0,Focused Care At Allenbrook,29.79849,-94.96589,Harris,5376.0,89.6,1.7230769230769232,0.04307692307692308
478,21,3,5,3,3,2,2,2,1,1,0,2,0,Focused Care At Baytown,29.738970000000002,-94.9983,Harris,6945.0,115.75,2.2259615384615383,0.055649038461538465
479,63,4,6,5,4,2,1,2,6,13,12,10,7,Focused Care at Burnet Bay,29.79849,-94.96589,Harris,18989.0,316.48333333333335,6.086217948717949,0.15215544871794873
480,46,1,4,5,6,0,1,1,2,6,5,8,9,Focused Care at Cedar Bayou,29.79849,-94.96589,Harris,12356.0,205.9333333333333,3.9602564102564095,0.09900641025641026
481,34,2,0,1,0,1,1,3,0,2,8,9,10,Focused Care At Clarksville,33.655390000000004,-95.00488,Red River,5690.0,94.83333333333331,1.823717948717949,0.045592948717948716
482,5,0,0,0,0,0,0,0,1,2,1,1,3,Focused Care at Corpus,27.795,-97.44693000000001,Nueces,1507.0,25.11666666666667,0.4830128205128205,0.012075320512820512
483,8,0,0,1,0,0,2,0,1,1,1,1,1,Focused Care At Fort Stockton,30.74292,-102.78315,Pecos,1860.0,31.0,0.5961538461538461,0.014903846153846153
485,16,1,0,7,3,2,1,1,3,2,3,2,2,Focused Care At Huntsville,30.64369000000001,-95.53981,Walker,7936.0,132.26666666666668,2.5435897435897443,0.06358974358974359
486,7,0,1,1,1,2,1,0,0,2,0,0,0,Focused Care At Lamesa,32.69327,-102.01053,Dawson,1875.0,31.25,0.6009615384615384,0.01502403846153846
487,2,0,0,0,0,1,1,0,0,0,0,0,0,Focused Care At Midland,32.051140000000004,-102.05955,Midland,696.0,11.6,0.22307692307692306,0.005576923076923077
488,11,4,2,2,1,0,1,0,1,0,0,0,0,Focused Care at Mount Pleasant,33.21697,-94.97819,Titus,3135.0,52.25,1.0048076923076923,0.02512019230769231
489,21,1,0,1,0,0,2,3,3,4,2,3,2,Focused Care At Odessa,31.79918,-102.46788000000001,Ector,5757.0,95.95,1.845192307692308,0.046129807692307685
490,24,1,5,3,2,2,3,1,2,2,3,1,4,Focused Care at Orange,30.0711,-93.86461,Orange,7202.0,120.03333333333332,2.308333333333333,0.05770833333333333
491,64,4,3,5,3,6,4,7,8,8,8,12,9,Focused Care at Pasadena,29.648020000000002,-95.18998,Harris,17164.0,286.06666666666666,5.50128205128205,0.1375320512820513
492,2,0,0,0,0,0,0,0,1,1,0,0,0,Focused Care At Pecos,31.425390000000004,-103.62295999999999,Reeves,564.0,9.4,0.1807692307692308,0.0045192307692307684
493,8,1,1,2,2,0,0,1,0,1,1,1,1,Focused Care at Sherman,33.64891,-96.70004,Grayson,2558.0,42.63333333333333,0.8198717948717948,0.020496794871794868
494,32,4,2,6,5,8,5,2,3,2,1,0,0,Focused Care at Summer Place,30.05295,-94.17654,Jefferson,10674.0,177.9,3.4211538461538464,0.08552884615384616
495,7,1,4,1,0,1,0,0,0,1,0,0,0,Focused Care At Waxahachie,32.36912,-96.79744000000001,Ellis,2271.0,37.85,0.7278846153846155,0.018197115384615388
496,17,1,4,3,5,4,2,2,0,1,1,1,2,Focused Care at Webster,29.537809999999997,-95.13687,Harris,4873.0,81.21666666666667,1.5618589743589744,0.03904647435897436
497,31,3,4,5,4,5,2,2,4,6,4,1,2,Focused Care at Westwood,29.670759999999998,-95.58511999999999,Harris,6573.0,109.55,2.106730769230769,0.052668269230769234
498,36,2,3,2,6,6,3,2,5,6,3,4,2,Focused Care Of Center,31.73268,-94.20156999999999,Shelby,8936.0,148.93333333333334,2.8641025641025637,0.0716025641025641
501,22,0,3,0,4,4,2,3,1,2,1,2,1,Fort Bend Healthcare Center,29.545959999999997,-95.86816,Fort Bend,5676.0,94.6,1.8192307692307688,0.045480769230769234
505,102,7,11,18,10,18,16,12,14,6,6,5,6,Fort Worth Transitional Care Center,32.7287,-97.31777,Tarrant,29130.0,485.5,9.336538461538463,0.23341346153846154
506,29,2,3,5,3,2,2,3,1,0,1,2,6,Fort Worth Wellness And Rehabilitation,32.77444000000001,-97.40272,Tarrant,8975.0,149.58333333333334,2.8766025641025643,0.07191506410256411
507,5,1,0,0,0,0,1,0,0,1,1,1,1,"Fortress Health and Rehab of Rock Prairie, LLC",30.56255,-96.27564,Brazos,1509.0,25.15,0.4836538461538461,0.012091346153846152
508,42,4,10,8,3,4,3,6,5,4,1,1,0,Forum Parkway Health and Rehabilitation,32.852309999999996,-97.13119,Tarrant,10528.0,175.46666666666667,3.3743589743589744,0.08435897435897435
509,19,0,3,1,2,1,1,1,4,5,7,6,4,Founders Plaza Nursing and Rehabilitation,33.01189,-96.53479,Collin,5987.0,99.78333333333332,1.9189102564102565,0.04797275641025641
510,160,17,18,11,18,13,21,18,20,17,18,20,22,FOX HOLLOW POST ACUTE,25.99101,-97.43946,Cameron,31468.0,524.4666666666667,10.085897435897436,0.25214743589743593
511,1,1,1,1,0,0,0,0,0,0,0,0,0,Frank M Tejeda Texas State Veterans Home,29.11822,-98.2018,Wilson,383.0,6.383333333333334,0.12275641025641025,0.0030689102564102565
512,27,3,2,2,2,1,1,2,5,2,4,3,2,Franklin Heights Nursing and Rehabilitation Center,31.848209999999998,-106.53263999999999,El Paso,6743.0,112.38333333333334,2.1612179487179493,0.054030448717948716
513,8,2,0,1,0,0,0,0,1,2,1,0,1,Franklin Nursing Home,31.07333,-96.42385,Robertson,1992.0,33.2,0.6384615384615385,0.01596153846153846
515,10,1,1,2,0,2,1,1,0,1,0,1,0,Fredericksburg Nursing And Rehabilitation,30.281509999999997,-98.87711999999999,Gillespie,2064.0,34.4,0.6615384615384615,0.016538461538461537
516,136,7,10,11,15,15,17,13,20,19,20,15,16,Friendship Haven Healthcare and Rehabilitation Center,29.51492,-95.19219,Galveston,42108.0,701.8,13.496153846153845,0.3374038461538461
518,8,2,1,2,2,0,0,0,0,0,1,1,1,Frio Regional Hospital,28.901709999999998,-99.14689,Frio,2982.0,49.7,0.9557692307692308,0.02389423076923077
519,20,1,0,6,2,2,2,0,0,0,1,3,5,Gainesville Health and Rehabilitation Center,33.65629000000001,-97.17453,Cooke,5376.0,89.6,1.7230769230769232,0.04307692307692308
520,12,0,0,2,4,2,2,2,1,1,3,1,2,Galleria Residence and Rehabilitation Center,29.73555,-95.52161,Harris,4730.0,78.83333333333333,1.516025641025641,0.037900641025641016
521,9,0,0,0,2,2,0,2,2,0,0,1,1,Ganado Nursing And Rehabilitation Center,29.02263,-96.48946,Jackson,2373.0,39.55,0.760576923076923,0.019014423076923075
522,59,6,3,5,3,6,12,7,12,4,5,3,3,Garden Terrace At Fort Worth,32.667590000000004,-97.41797,Tarrant,18293.0,304.8833333333333,5.863141025641027,0.14657852564102564
523,188,18,18,22,14,19,17,14,15,21,15,14,14,Garden Terrace At Houston,29.68088,-95.40493000000001,Harris,56840.0,947.3333333333335,18.21794871794872,0.45544871794871794
524,14,2,1,2,2,0,2,1,1,1,1,1,0,Garden Terrace Healthcare Center,33.0626,-98.62573,Young,4278.0,71.3,1.3711538461538462,0.03427884615384615
525,14,4,0,0,3,3,2,1,3,1,0,0,0,Garden Villa Nursing Home,29.213040000000003,-96.28036,Wharton,4674.0,77.9,1.498076923076923,0.037451923076923084
526,5,0,0,0,1,1,1,1,1,0,0,0,0,Gardendale Rehabilitation and Nursing Center,31.9462,-95.25704,Cherokee,1443.0,24.05,0.4625,0.0115625
527,13,4,0,4,1,2,0,2,1,2,0,1,0,Garland Nursing and Rehabilitation,32.9139,-96.67493,Dallas,3019.0,50.31666666666667,0.9676282051282052,0.02419070512820513
528,99,8,8,10,15,22,16,15,15,9,7,3,4,Garnet Hill Rehabilitation and Skilled Care,33.01189,-96.53479,Collin,29693.0,494.88333333333327,9.51698717948718,0.2379246794871795
529,74,2,6,5,5,6,7,3,9,11,9,7,6,Garrison Geriatric Education And Care Center,33.697540000000004,-101.90482,Lubbock,17580.0,293.0,5.634615384615384,0.1408653846153846
530,76,10,11,8,12,9,7,4,9,3,4,7,8,Garrison Nursing Home and Rehabilitation Center,31.8136,-94.5254,Nacogdoches,19462.0,324.3666666666667,6.237820512820513,0.15594551282051286
532,8,4,1,2,1,0,1,0,1,1,0,0,0,Gazebo Terrace Convalescent Center,30.21068,-96.40706,Washington,2982.0,49.7,0.9557692307692308,0.02389423076923077
536,15,1,1,0,1,0,1,1,4,4,2,2,1,Georgia Manor Nursing Home,35.14901,-101.87111,Randall,5055.0,84.25,1.6201923076923077,0.040504807692307694
538,5,1,0,0,0,0,1,0,1,1,1,1,1,Giddings Residence and Rehabilitation Center,30.16902,-96.92220999999999,Lee,1415.0,23.58333333333333,0.45352564102564097,0.011338141025641024
539,18,2,0,1,2,3,1,1,2,0,1,1,4,"Gilmer Nursing and Rehabilitation, LP",32.7951,-94.99552,Upshur,4708.0,78.46666666666667,1.508974358974359,0.037724358974358975
542,49,8,5,5,8,5,4,3,6,6,3,3,3,Glen Rose Nursing and Rehab Center,32.20528,-97.79713000000001,Somervell,15225.0,253.75,4.8798076923076925,0.12199519230769232
543,98,16,11,10,9,7,10,16,5,7,12,4,14,Glenview Wellness and Rehab,32.83996,-97.22499,Tarrant,23028.0,383.8,7.380769230769231,0.1845192307692308
544,20,0,1,2,2,0,4,4,3,1,4,1,1,Golden Acres Living and Rehabilitation Center,32.82444,-96.67995,Dallas,4724.0,78.73333333333333,1.5141025641025638,0.0378525641025641
545,6,0,0,0,2,3,1,1,1,0,0,0,1,Golden Age Healthcare Residence,32.07521,-98.34946,Erath,2192.0,36.53333333333333,0.7025641025641025,0.017564102564102558
547,11,2,2,1,1,0,1,2,1,0,0,1,1,Golden Creek Healthcare and Rehabilitation Center,30.3686,-96.0616,Grimes,3201.0,53.35,1.0259615384615386,0.025649038461538463
548,17,0,1,3,1,2,3,6,1,3,2,4,3,Golden Estates Rehabilitation Center,29.468759999999996,-98.52824,Bexar,5121.0,85.35,1.6413461538461538,0.04103365384615385
549,160,3,11,15,12,16,13,18,16,22,19,17,16,Golden Palms Health Center,26.25668,-97.66671,Cameron,31432.0,523.8666666666667,10.074358974358974,0.2518589743589744
550,1,0,0,0,1,0,0,0,0,0,0,0,0,Golden Plains Community Hospital,35.69979,-101.39788,Hutchinson,117.0,1.95,0.0375,0.0009375
551,78,9,6,8,8,16,9,9,11,5,8,7,6,Golden Villa Nursing Home,33.115559999999995,-94.20196999999999,Cass,26348.0,439.13333333333327,8.444871794871794,0.2111217948717949
552,9,1,1,0,2,2,1,0,1,1,0,0,0,Golden Years Nursing and Rehabilitation Center,31.318640000000002,-96.84931999999999,Falls,2637.0,43.95,0.8451923076923078,0.02112980769230769
555,11,3,1,2,0,4,0,0,0,0,0,1,1,Gonzales Memorial Hospital,29.477209999999996,-97.45170999999999,Gonzales,3399.0,56.65,1.0894230769230768,0.027235576923076918
556,106,12,11,11,19,17,11,14,15,8,4,10,7,Good Samaritan Society Denton Village,33.22113,-97.14723000000001,Denton,30568.0,509.4666666666666,9.797435897435896,0.24493589743589744
557,55,4,5,4,7,9,5,9,7,1,3,5,5,Good Samaritan Society Lake Forest Village,33.15036,-97.096,Denton,12915.0,215.25,4.139423076923077,0.10348557692307693
558,103,11,8,12,12,13,10,7,8,5,8,6,12,Good Samaritan Society White Acres,31.848209999999998,-106.53263999999999,El Paso,23945.0,399.08333333333326,7.674679487179486,0.1918669871794872
561,21,2,3,1,2,2,2,3,4,1,1,0,0,Goodall Witcher Nursing Facility Swing Bed,31.80782,-97.56147,Bosque,5889.0,98.15,1.8875,0.047187500000000014
564,126,9,10,6,11,14,13,10,9,12,21,14,22,Grace Care Center at Northpointe,30.06135,-95.68202,Harris,36040.0,600.6666666666666,11.551282051282053,0.2887820512820513
565,79,10,7,5,10,7,3,3,3,10,9,12,5,Grace Care Center of Cypress,29.90819,-95.65323000000001,Harris,22401.0,373.35,7.179807692307692,0.17949519230769231
566,2,0,0,0,0,1,1,0,0,0,1,0,0,Grace Care Center of Henrietta,33.75812,-98.20161999999999,Clay,696.0,11.6,0.22307692307692306,0.005576923076923077
568,5,0,0,2,1,1,0,1,0,0,0,0,0,Grace Hill Nursing and Rehabilitation,33.00551,-94.59071,Cass,767.0,12.783333333333333,0.2458333333333333,0.006145833333333333
569,42,5,2,3,6,4,6,6,8,3,6,4,2,GRACE POINTE WELLNESS CENTER,31.78412,-106.4979,El Paso,12398.0,206.63333333333333,3.973717948717949,0.09934294871794873
570,94,7,7,12,15,5,10,11,15,4,1,3,8,Grace Presbyterian Village,32.71162,-96.78369,Dallas,27800.0,463.33333333333326,8.910256410256409,0.22275641025641027
571,12,0,2,0,0,3,0,1,1,1,0,2,2,Gracy Woods 2 Nursing Center,30.387990000000002,-97.70684,Travis,3186.0,53.1,1.0211538461538459,0.025528846153846152
572,25,2,5,3,2,5,2,2,2,3,5,2,4,Gracy Woods Nursing Center 1,30.387990000000002,-97.70684,Travis,6519.0,108.65,2.089423076923077,0.05223557692307692
573,12,1,1,0,2,3,0,2,4,1,0,1,0,Graham Oaks Care Center,33.0626,-98.62573,Young,4044.0,67.4,1.2961538461538462,0.032403846153846165
574,1,0,0,0,0,0,0,1,0,0,0,0,0,Graham Regional Medical Center,33.0626,-98.62573,Young,183.0,3.05,0.05865384615384616,0.0014663461538461538
575,80,5,3,5,4,3,7,14,8,15,12,14,18,Granbury Care Center,32.42318,-97.80877,Hood,23232.0,387.2,7.446153846153847,0.18615384615384614
576,50,3,4,3,7,8,7,4,6,5,7,5,6,Granbury Villa Nursing Center,32.42318,-97.80877,Hood,10954.0,182.56666666666663,3.5108974358974363,0.0877724358974359
577,39,4,4,1,6,4,4,9,2,6,5,7,7,Grand Terrace Rehabilitation And Health Care,26.21583,-98.23917,Hidalgo,11973.0,199.55,3.8375,0.0959375
578,35,5,6,2,2,4,5,2,7,1,2,0,2,Grandview Nursing And Rehabilitation Center,32.27536,-97.16601,Johnson,9279.0,154.65,2.974038461538462,0.07435096153846155
580,45,7,3,3,3,5,3,4,4,4,6,2,1,Granite Mesa Health Center,30.572340000000004,-98.20729,Burnet,11883.0,198.05,3.808653846153846,0.09521634615384617
581,41,4,4,8,7,5,6,4,7,3,1,1,1,Grapevine Medical Lodge,32.92498,-97.07177,Tarrant,13943.0,232.38333333333333,4.468910256410256,0.1117227564102564
582,10,1,0,3,2,1,1,1,1,1,1,1,1,Grayson Square Health Care Center,29.43985,-98.45861,Bexar,2406.0,40.1,0.7711538461538462,0.019278846153846157
583,6,0,0,0,0,0,1,3,0,0,1,1,0,Great Plains Nursing and Rehabilitation,35.89512,-102.02431999999999,Moore,1552.0,25.86666666666667,0.4974358974358975,0.012435897435897436
584,41,9,3,5,4,3,4,5,7,3,3,1,3,Green Valley Healthcare and Rehabilitation Center,32.868109999999994,-97.25197,Tarrant,10171.0,169.51666666666668,3.2599358974358976,0.08149839743589744
585,12,0,3,3,2,0,0,1,2,0,1,0,0,Greenbrier Nursing and Rehabilitation Center,31.874409999999997,-95.66914,Anderson,3384.0,56.4,1.0846153846153843,0.027115384615384614
586,11,1,2,2,1,2,0,0,3,0,0,0,0,Greenbrier Nursing and Rehabilitation Center of Tyler,32.36285,-95.31526,Smith,2535.0,42.25,0.8125,0.0203125
587,7,0,1,0,0,0,0,3,2,1,0,0,0,Greenhill Villas of Mount Pleasant,33.21697,-94.97819,Titus,1869.0,31.15,0.5990384615384615,0.01497596153846154
589,18,2,3,0,2,3,2,1,1,1,1,0,3,Greenview Manor,31.53875,-97.19525,McLennan,5340.0,89.0,1.7115384615384617,0.04278846153846154
590,6,1,2,0,0,1,2,0,0,1,0,0,0,Greenville Gardens,33.184259999999995,-96.11950999999999,Hunt,1890.0,31.5,0.6057692307692307,0.01514423076923077
591,49,2,4,4,1,10,6,6,8,3,4,2,3,Greenville Health And Rehab Center,33.06878,-96.08534,Hunt,13589.0,226.4833333333333,4.3554487179487165,0.10888621794871793
592,10,1,1,3,2,0,1,1,1,1,0,0,0,Groesbeck LTC Nursing and Rehabilitation,31.50133,-96.51758000000001,Limestone,3018.0,50.3,0.9673076923076922,0.024182692307692304
593,10,1,1,0,2,1,1,1,0,1,0,1,1,Groveton Nursing Home and Assisted Living,31.10075,-95.08953000000001,Trinity,3046.0,50.76666666666666,0.9762820512820513,0.02440705128205128
594,13,0,0,1,1,1,1,0,3,3,2,1,3,Guadalupe Valley Nursing And Rehabilitation Center,29.5334,-97.93885999999999,Guadalupe,3601.0,60.01666666666666,1.1541666666666666,0.028854166666666663
597,47,6,6,3,3,4,3,4,4,6,5,6,3,Gulf Healthcare Center Galveston,29.24558,-94.92353,Galveston,13825.0,230.41666666666663,4.431089743589744,0.11077724358974357
598,1,1,1,0,0,0,0,0,0,0,0,0,0,Gulf Healthcare Center Port Arthur,29.93921,-93.91601,Jefferson,645.0,10.75,0.2067307692307692,0.0051682692307692315
599,22,1,3,2,1,2,0,0,5,3,4,1,2,Gulf Pointe Plaza,28.14389000000001,-97.05081,Aransas,6440.0,107.33333333333331,2.064102564102564,0.0516025641025641
601,6,0,0,1,0,1,0,0,0,1,0,1,2,Hacienda Oaks at Beeville,28.402479999999997,-97.71085,Bee,1390.0,23.16666666666667,0.4455128205128205,0.011137820512820513
602,5,1,1,2,0,0,0,0,0,1,0,0,0,Hacienda Oaks Nursing and Rehabilitation Center,29.5334,-97.93885999999999,Guadalupe,1047.0,17.45,0.33557692307692305,0.008389423076923077
605,4,1,1,0,0,0,0,0,2,0,0,0,0,Hallettsville Nursing And Rehabilitation Center,29.377,-96.84376999999999,Lavaca,1260.0,21.0,0.40384615384615385,0.010096153846153848
606,8,0,1,0,2,0,2,0,1,0,0,1,1,Hamilton General Hospital,31.6858,-98.18813,Hamilton,2256.0,37.6,0.7230769230769231,0.01807692307692308
608,9,4,1,0,1,0,0,1,2,0,0,0,0,Hamilton Healthcare Center,31.6858,-98.18813,Hamilton,2175.0,36.25,0.6971153846153846,0.017427884615384616
609,16,0,0,0,0,1,3,2,1,1,4,1,3,Hamilton Hospital,33.35974,-98.73818,Young,4512.0,75.2,1.446153846153846,0.03615384615384616
611,1,0,0,0,0,0,0,0,0,1,0,0,0,Hamlin Memorial Hospital,32.8649,-100.13233000000001,Jones,249.0,4.15,0.07980769230769233,0.0019951923076923076
613,3,2,0,0,1,0,0,0,0,0,0,0,0,Hansford Manor,36.2301,-101.21809,Hansford,813.0,13.55,0.2605769230769231,0.006514423076923077
618,29,2,6,5,4,3,1,4,4,2,1,3,2,Harlingen Nursing and Rehabilitation Center,26.25668,-97.66671,Cameron,5289.0,88.15,1.695192307692308,0.042379807692307696
622,6,0,0,0,1,0,0,2,1,0,1,0,1,Haskell Healthcare Center,33.12233,-99.65411,Haskell,2022.0,33.7,0.6480769230769231,0.016201923076923083
623,4,0,0,1,2,0,0,0,0,0,1,0,0,Haskell Memorial Hospital,33.12233,-99.65411,Haskell,930.0,15.5,0.2980769230769231,0.007451923076923075
624,13,1,1,1,1,0,2,0,0,0,2,3,5,Haven Care Nursing and Rehabilitation Center,32.58258,-94.72065,Gregg,3961.0,66.01666666666667,1.269551282051282,0.03173878205128205
625,10,2,1,1,0,0,1,0,0,0,3,0,2,Hays Nursing and Rehabilitation Center,29.879579999999997,-97.96642,Guadalupe,2820.0,47.0,0.903846153846154,0.022596153846153846
631,7,1,0,2,3,0,1,1,0,0,0,0,1,Hearthstone Health Center,30.53345,-97.72475,Williamson,1941.0,32.35,0.6221153846153846,0.015552884615384616
633,14,2,1,2,3,4,1,0,1,1,1,1,0,Hemphill Care Center,31.308120000000002,-93.77894,Sabine,3920.0,65.33333333333333,1.2564102564102564,0.03141025641025641
635,52,9,3,2,4,6,2,1,9,3,5,2,8,Henderson Health and Rehabilitation Center,32.229890000000005,-94.73272,Rusk,15054.0,250.9,4.825,0.120625
638,3,0,0,0,1,2,1,1,0,0,1,0,0,Hereford Nursing and Rehabilitation Center,34.91238,-102.559,Deaf Smith,1601.0,26.68333333333333,0.5131410256410256,0.012828525641025641
640,23,1,2,2,1,1,4,2,6,2,2,2,1,Heritage at Longview Healthcare and Rehabilitation,32.58258,-94.72065,Gregg,5333.0,88.88333333333334,1.7092948717948717,0.0427323717948718
641,17,1,1,2,2,0,5,2,6,4,1,2,1,Heritage at Turner Park,32.77409,-97.00533,Dallas,5975.0,99.58333333333331,1.9150641025641024,0.04787660256410256
642,21,3,1,2,3,2,0,1,2,0,3,6,3,Heritage Convalescent Center,35.203179999999996,-101.89519,Potter,7143.0,119.05,2.289423076923077,0.057235576923076924
643,8,0,0,1,2,1,3,1,0,0,0,0,0,Heritage Gardens Healthcare Center,32.96188,-96.89701,Dallas,2256.0,37.6,0.7230769230769231,0.01807692307692308
645,6,0,0,0,1,0,1,2,0,1,1,0,0,Heritage House Nursing and Rehabilitation,31.08166,-96.93866,Falls,1692.0,28.2,0.5423076923076923,0.013557692307692307
646,29,3,2,3,5,0,1,4,3,2,4,4,3,Heritage House of Keller,32.925740000000005,-97.22899,Tarrant,8203.0,136.71666666666667,2.629166666666667,0.06572916666666667
647,63,7,8,6,10,10,12,4,5,0,3,2,1,Heritage House of Marshall Healthcare and Rehabilitation Center,32.46883,-94.29489000000001,Harrison,18771.0,312.85,6.016346153846153,0.15040865384615384
648,63,7,3,5,12,10,7,6,7,4,5,6,6,Heritage House Of Paris,33.62385,-95.48378000000001,Lamar,14039.0,233.9833333333333,4.499679487179487,0.11249198717948716
651,10,0,0,0,2,3,0,1,1,1,2,1,2,Heritage Nursing and Rehabilitation,29.4915,-98.4011,Bexar,1756.0,29.266666666666666,0.5628205128205128,0.014070512820512821
652,24,1,1,2,2,2,1,2,2,1,1,3,6,Heritage Oaks Nursing and Rehabilitation Center,33.54623,-101.88729000000001,Lubbock,7032.0,117.2,2.2538461538461543,0.05634615384615384
653,25,0,2,2,3,5,4,7,5,3,4,0,3,Heritage Oaks Residence and Rehabilitation Center,32.75425,-97.08254000000001,Tarrant,7811.0,130.18333333333334,2.503525641025641,0.06258814102564103
655,15,1,1,1,0,1,5,3,1,2,2,1,2,Heritage Oaks West Retirement Village,32.086929999999995,-96.52879,Navarro,4801.0,80.01666666666667,1.5387820512820514,0.03846955128205128
656,5,1,1,0,1,0,1,2,0,0,0,0,0,Heritage Park of Katy Nursing and Rehabilitation,29.852079999999997,-95.83094,Harris,1107.0,18.45,0.3548076923076923,0.008870192307692306
657,5,0,1,1,1,0,0,1,0,0,1,0,0,Heritage Park Rehabilitation and Skilled Nursing Center,30.28997,-97.71465,Travis,1179.0,19.65,0.3778846153846154,0.009447115384615384
659,55,5,6,8,9,4,2,5,9,0,1,4,3,Heritage Plaza Nursing Center,33.51343,-94.13056999999999,Bowie,14481.0,241.35,4.641346153846154,0.11603365384615386
661,27,3,1,3,6,6,5,5,5,3,5,4,5,Heritage Trails Nursing and Rehabilitation Center,32.285109999999996,-97.51137,Johnson,10595.0,176.58333333333337,3.395833333333333,0.08489583333333334
662,10,1,2,2,2,1,1,0,0,1,1,1,2,Heritage Villa Nursing and Rehabilitation,30.05701,-94.91785,Liberty,3186.0,53.1,1.0211538461538459,0.025528846153846152
663,13,4,2,1,2,0,1,1,1,1,0,0,0,Hico Nursing and Rehabilitation Center,31.951999999999998,-98.02941,Hamilton,3237.0,53.95,1.0375,0.0259375
665,5,0,1,1,0,0,1,1,0,0,1,0,0,High Hope Care Center of Brenham,30.21068,-96.40706,Washington,1509.0,25.15,0.4836538461538461,0.012091346153846152
667,81,19,6,17,13,13,2,7,3,7,5,6,3,Highland Meadows Health and Rehab,32.85504,-96.42764,Rockwall,20475.0,341.25,6.5625,0.1640625
668,20,0,0,0,0,1,7,6,6,0,0,0,0,Highland Meadows Health and Rehabilitation,32.85504,-96.42764,Rockwall,6102.0,101.7,1.955769230769231,0.048894230769230766
670,20,3,4,6,2,1,1,3,0,0,0,1,2,Highland Park Care Center,29.83057,-95.37698,Harris,5860.0,97.66666666666669,1.878205128205128,0.046955128205128205
671,111,11,7,13,8,14,16,12,14,7,5,5,8,Highland Pines Nursing Home and Rehab Center,32.50854,-94.72407,Gregg,31417.0,523.6166666666667,10.069551282051282,0.2517387820512821
673,4,1,0,0,0,0,0,0,1,0,0,0,2,Hill Country Care Healthcare and Rehabilitation,30.218940000000003,-98.12895,Hays,1326.0,22.1,0.425,0.010625
676,24,3,3,2,2,4,4,3,1,2,2,1,1,Hill Country Rehabilitation and Nursing Center,31.21606,-97.97338,Coryell,7164.0,119.4,2.2961538461538464,0.05740384615384616
677,5,2,1,2,0,0,1,0,0,0,0,0,0,Hill Regional Hospital,32.02172,-97.1336,Hill,1641.0,27.35,0.5259615384615385,0.013149038461538462
679,30,2,0,2,0,6,3,0,0,3,4,9,2,Hillside Heights Rehabilitation Suites,35.1103,-102.01664,Randall,8922.0,148.7,2.859615384615384,0.07149038461538461
680,26,4,0,1,0,3,1,5,2,2,2,1,6,Hillside Medical Lodge,31.42046,-97.76154,Coryell,7134.0,118.9,2.286538461538462,0.05716346153846155
682,57,2,6,8,5,12,8,6,10,11,9,9,8,Hilltop Park Rehabilitation and Care Center,32.75481,-97.78995,Parker,16641.0,277.35,5.333653846153847,0.13334134615384616
683,85,11,8,11,11,11,9,11,10,11,9,12,11,Hilltop Village Nursing and Rehabilitation Center,30.03422,-99.15819,Kerr,19415.0,323.5833333333333,6.22275641025641,0.15556891025641026
684,5,0,0,0,2,1,1,0,0,1,0,0,0,Hillview Manor Nursing And Rehabilitation Center,31.43787,-98.50904,Mills,1443.0,24.05,0.4625,0.0115625
685,2,0,0,0,0,1,0,0,0,1,0,0,0,Hogan Clark Nursing and Rehabilitation Center,32.051140000000004,-102.05955,Midland,696.0,11.6,0.22307692307692306,0.005576923076923077
686,10,0,1,0,0,0,1,0,2,2,3,0,1,"Holiday Hill, Inc",31.87437000000001,-99.47038,Coleman,2622.0,43.7,0.8403846153846154,0.021009615384615384
687,27,2,4,2,5,2,4,3,4,0,1,2,3,Holiday Nursing And Rehabilitation,31.73268,-94.20156999999999,Shelby,5071.0,84.51666666666667,1.6253205128205128,0.04063301282051282
689,91,7,6,11,5,8,10,6,4,7,9,12,9,Holly Hall,29.68088,-95.40493000000001,Harris,27931.0,465.51666666666665,8.95224358974359,0.22380608974358976
690,103,13,17,7,16,13,16,9,13,5,6,4,7,Hollymead,33.0328,-97.06085999999999,Denton,29305.0,488.41666666666674,9.392628205128208,0.23481570512820515
692,5,0,0,0,0,0,1,0,0,2,1,1,0,Homestead Nursing And Rehabilitation Of Baird,32.32056,-99.35231,Callahan,1443.0,24.05,0.4625,0.0115625
693,9,2,0,1,0,1,0,1,1,0,1,1,1,"Homestead Nursing and Rehabilitation of Collinsville, LLC",33.53626,-96.90828,Grayson,2307.0,38.45,0.739423076923077,0.018485576923076924
695,9,0,0,1,0,0,2,2,1,1,1,0,1,"Homestead Nursing and Rehabilitation of Hillsboro, LLC",32.02172,-97.1336,Hill,2703.0,45.05,0.8663461538461538,0.021658653846153845
696,4,2,1,0,0,0,1,0,0,0,1,0,0,"Homestead Nursing and Rehabilitation of Itasca, LLC",32.16217,-97.15511,Hill,1326.0,22.1,0.425,0.010625
698,4,0,1,0,0,0,0,0,0,1,1,1,1,Hondo Nursing and Rehabilitation,29.4267,-99.15448,Medina,1050.0,17.5,0.3365384615384616,0.00841346153846154
699,12,0,0,0,0,3,3,3,1,2,4,1,2,Honey Grove Nursing Center,33.61208,-95.89414000000001,Fannin,3242.0,54.03333333333333,1.0391025641025642,0.025977564102564098
702,4,2,0,1,0,0,0,0,0,0,0,0,1,Houston County Nursing Home,31.2935,-95.49194,Houston,1326.0,22.1,0.425,0.010625
705,15,5,3,1,1,2,1,0,0,1,1,0,0,Houston Methodist Hospital,29.70629000000001,-95.4026,Harris,3801.0,63.35,1.2182692307692309,0.030456730769230767
708,16,1,1,1,1,3,4,3,2,0,1,0,3,HOUSTON TRANSITIONAL CARE,29.68802,-95.51626999999999,Harris,4522.0,75.36666666666666,1.4493589743589743,0.03623397435897436
709,60,14,6,14,10,2,3,0,4,6,5,4,2,Huebner Creek Health and Rehabilitation Center,29.52465,-98.60749,Bexar,15910.0,265.1666666666667,5.099358974358975,0.12748397435897435
711,14,0,0,3,1,0,2,4,1,0,0,4,1,Humble Healthcare Center,30.006790000000002,-95.29018,Harris,4360.0,72.66666666666667,1.3974358974358976,0.03493589743589744
715,16,2,3,2,1,2,1,2,4,1,1,1,1,Huntington Healthcare And Rehabilitation,31.23143,-94.51943,Angelina,4164.0,69.4,1.3346153846153848,0.033365384615384616
716,27,2,7,2,3,5,4,2,1,0,0,4,4,Huntsville Healthcare Center,30.64369000000001,-95.53981,Walker,9523.0,158.71666666666667,3.05224358974359,0.07630608974358974
718,5,2,1,1,2,0,0,0,0,0,2,1,1,Hurst Plaza Nursing and Rehabilitation,32.8171,-97.17951,Tarrant,1511.0,25.18333333333333,0.4842948717948718,0.012107371794871796
722,13,2,1,2,1,2,1,2,1,1,1,1,1,Immanuels Healthcare,32.69064,-97.26215,Tarrant,2667.0,44.45,0.8548076923076924,0.02137019230769231
723,2,1,0,0,0,0,0,0,1,0,0,0,0,Indian Oaks Living Center,31.05081,-97.64587,Bell,696.0,11.6,0.22307692307692306,0.005576923076923077
724,14,2,5,6,7,4,1,2,1,2,1,0,1,Inspiration Hills Rehabilitation Center,29.46095,-98.57200999999999,Bexar,4860.0,81.0,1.5576923076923077,0.038942307692307686
726,14,5,1,0,3,1,1,1,1,0,0,1,1,Interlochen Health and Rehabilitation Center,32.75461,-97.13902,Tarrant,4212.0,70.2,1.35,0.03375
727,1,0,0,0,0,0,1,0,0,0,0,0,0,Iowa Park Healthcare Center,33.97433,-98.72274,Wichita,315.0,5.25,0.10096153846153846,0.0025240384615384612
730,1,0,0,0,0,1,1,1,0,0,0,0,0,"Irving Nursing and Rehabilitation, LP",32.82602,-96.96544,Dallas,485.0,8.083333333333334,0.15544871794871795,0.0038862179487179492
734,12,0,1,2,4,3,1,2,4,2,2,3,3,Jacinto City Healthcare Center,29.76277,-95.26243000000001,Harris,4834.0,80.56666666666666,1.5493589743589742,0.03873397435897436
735,8,1,0,1,0,2,2,0,1,0,1,0,0,Jackson County Hospital,29.037679999999998,-96.70042,Jackson,2058.0,34.3,0.6596153846153846,0.016490384615384615
736,1,0,0,0,0,0,1,0,0,0,0,0,0,Jacksonville Healthcare Center,31.9462,-95.25704,Cherokee,315.0,5.25,0.10096153846153846,0.0025240384615384612
739,26,2,4,4,3,3,5,4,2,0,0,0,0,Jefferson Nursing and Rehabilitation Center,30.099729999999997,-94.17074000000001,Jefferson,7200.0,120.0,2.3076923076923075,0.05769230769230769
740,32,2,2,5,3,1,2,1,2,1,7,5,4,Jeffrey Place Healthcare Center,31.53875,-97.19525,McLennan,9816.0,163.6,3.1461538461538465,0.07865384615384616
746,9,0,2,0,1,1,1,0,0,2,0,0,2,Kaufman Healthcare Center,32.57358,-96.24717,Kaufman,2505.0,41.75,0.8028846153846154,0.020072115384615383
747,13,4,1,1,1,2,3,2,3,2,4,3,3,"Keeneland Nursing and Rehabilitation, LP",32.75481,-97.78995,Parker,4533.0,75.55,1.452884615384615,0.03632211538461538
748,46,4,3,1,5,10,6,7,8,5,5,2,2,Keller Oaks Healthcare Center,32.925740000000005,-97.22899,Tarrant,12368.0,206.13333333333333,3.964102564102564,0.0991025641025641
749,2,0,0,0,0,0,0,0,0,1,1,0,0,Kemp Care,32.36358,-96.24817,Henderson,564.0,9.4,0.1807692307692308,0.0045192307692307684
750,22,0,1,5,3,3,1,3,3,1,3,0,2,Kendall House Wellness and Rehabilitation,29.85533,-98.72266,Kendall,6740.0,112.33333333333331,2.16025641025641,0.05400641025641025
752,27,3,1,4,3,4,2,5,3,7,4,4,3,Kennedy Health And Rehab,31.33969,-94.82173,Angelina,7497.0,124.95,2.4028846153846155,0.06007211538461539
754,1,1,0,0,0,0,0,0,0,0,0,0,0,Kerens Care Center,32.11312,-96.20884000000001,Navarro,315.0,5.25,0.10096153846153846,0.0025240384615384612
756,6,1,0,1,0,1,0,1,0,1,0,1,0,Kerrville Va Medical Center Swing Bed,30.03422,-99.15819,Kerr,1074.0,17.9,0.34423076923076923,0.008605769230769231
759,20,3,0,3,1,5,0,3,0,3,0,3,0,Kimble Hospital,30.48896,-99.79705,Kimble,2490.0,41.5,0.7980769230769231,0.019951923076923082
763,7,0,0,0,0,3,1,0,0,1,1,0,1,Kings Manor Methodist Home,34.91238,-102.559,Deaf Smith,2007.0,33.45,0.6432692307692308,0.016081730769230772
764,29,8,2,3,1,2,2,3,0,3,0,1,5,Kingsland Hills Care Center,30.66282,-98.44043,Llano,8475.0,141.25,2.7163461538461537,0.06790865384615384
765,45,3,7,3,4,2,5,2,5,3,2,5,6,Kingsville Nursing and Rehabilitation Center,27.44952,-97.86265999999999,Kleberg,13525.0,225.41666666666663,4.334935897435897,0.10837339743589744
766,3,1,0,1,0,0,1,0,0,0,0,0,0,Kirkland Court Health and Rehabilitation,35.203179999999996,-101.89519,Potter,813.0,13.55,0.2605769230769231,0.006514423076923077
767,61,5,5,7,9,8,4,6,9,7,4,10,11,Kirkwood Manor Nursing and Rehab Center,29.69772,-98.0702,Comal,17003.0,283.3833333333333,5.449679487179487,0.13624198717948716
768,9,0,0,1,2,2,0,0,0,3,1,1,2,"Kleberg County Nursing and Rehabilitation, LP",27.44952,-97.86265999999999,Kleberg,2669.0,44.48333333333333,0.855448717948718,0.02138621794871795
770,13,0,3,0,2,0,2,0,2,0,2,0,2,Knopp Healthcare and Rehabilitation,30.281509999999997,-98.87711999999999,Gillespie,1785.0,29.75,0.5721153846153846,0.014302884615384615
772,24,3,1,3,1,3,1,3,1,3,1,3,1,Knopp Nursing and Rehabilitation,30.281509999999997,-98.87711999999999,Gillespie,2868.0,47.8,0.9192307692307692,0.022980769230769228
774,11,1,1,1,1,3,2,0,1,1,0,0,0,Kountze Nursing Center,30.375759999999996,-94.37901,Hardin,2937.0,48.95,0.941346153846154,0.02353365384615385
775,36,3,2,3,5,3,5,3,5,3,1,2,3,Kruse Village,30.21068,-96.40706,Washington,10350.0,172.5,3.3173076923076925,0.08293269230769232
776,4,0,0,0,0,0,0,1,0,1,0,0,2,La Bahia Nursing And Rehabilitation,28.65702000000001,-97.41547,Goliad,1194.0,19.9,0.3826923076923077,0.009567307692307693
777,8,0,0,0,3,4,4,4,1,1,1,1,2,La Dora Nursing and Rehab Center,32.852309999999996,-97.13119,Tarrant,5852.0,97.53333333333332,1.8756410256410256,0.04689102564102564
781,45,9,2,6,5,2,2,2,2,3,4,4,8,La Vida Serena Nursing and Rehabilitation,29.742109999999997,-100.88273000000001,Val Verde,13713.0,228.55,4.395192307692308,0.1098798076923077
785,3,0,0,0,0,0,1,0,1,0,1,0,0,Lake Jackson Healthcare Center,29.05023,-95.47549000000001,Brazoria,813.0,13.55,0.2605769230769231,0.006514423076923077
786,8,1,0,2,0,1,0,1,0,1,1,0,1,"Lake Lodge Nursing and Rehabilitation, LP",32.83435,-97.46485,Tarrant,2124.0,35.4,0.6807692307692308,0.01701923076923077
788,49,4,4,4,9,5,5,11,7,3,4,7,7,Lake Village Nursing and Rehabilitation Center,33.04952,-96.98383000000001,Denton,15725.0,262.0833333333333,5.040064102564102,0.12600160256410256
789,2,0,1,1,0,0,0,0,0,0,1,0,0,Lake Worth Nursing and Rehabilitation,32.83435,-97.46485,Tarrant,828.0,13.8,0.2653846153846154,0.0066346153846153855
790,9,1,0,1,0,1,0,1,1,2,0,2,0,"Lakeridge LTC Partners, Inc",33.46993,-101.94095,Lubbock,939.0,15.65,0.30096153846153845,0.007524038461538461
791,6,2,0,0,2,0,0,1,0,0,0,1,0,Lakeshore Village Healthcare Center,31.62687,-97.21135,McLennan,1586.0,26.43333333333333,0.5083333333333333,0.012708333333333332
792,12,1,3,4,2,0,2,0,1,0,1,0,1,Lakeside Nursing And Rehabilitation Center,29.403959999999998,-98.73079,Bexar,2662.0,44.36666666666667,0.8532051282051282,0.021330128205128203
793,18,3,1,2,1,1,3,1,3,3,2,0,0,Lakeside Rehabilitation and Care Center,33.56969,-101.89126999999999,Lubbock,5274.0,87.9,1.6903846153846156,0.04225961538461539
794,30,2,1,1,3,4,3,2,3,3,2,3,6,Lakewest Rehabilitation And Healthcare Center,32.78137,-96.87917,Dallas,8720.0,145.33333333333334,2.794871794871795,0.06987179487179487
796,3,0,0,0,1,0,1,1,0,0,0,0,1,Lamb Healthcare Center,33.88987,-102.33544,Lamb,1209.0,20.15,0.3875,0.009687499999999998
798,16,2,1,5,2,2,1,2,1,0,0,0,2,Lampasas Nursing And Rehabilitation Center,31.08754,-98.22873,Lampasas,4644.0,77.4,1.4884615384615385,0.03721153846153846
799,25,2,0,3,1,3,4,3,1,2,1,2,6,Lampstand Nursing And Rehabilitation,30.66126,-96.32265,Brazos,8007.0,133.45,2.5663461538461543,0.06415865384615385
800,1,0,0,0,0,0,0,0,0,1,0,0,0,Lamun-Lusk-Sanchez Texas State Veterans Home,32.253640000000004,-101.47291,Howard,315.0,5.25,0.10096153846153846,0.0025240384615384612
802,53,3,6,12,10,22,12,10,7,4,5,1,0,Landmark At Plano,33.021370000000005,-96.74101999999999,Collin,15417.0,256.95,4.941346153846154,0.12353365384615385
803,11,1,0,2,0,0,1,0,1,1,2,2,1,Landmark Of Amarillo,35.26275,-101.9691,Potter,3135.0,52.25,1.0048076923076923,0.02512019230769231
805,13,0,0,1,3,5,4,5,1,2,5,4,4,Laporte Healthcare Center,29.690490000000004,-95.05358000000001,Harris,5087.0,84.78333333333333,1.6304487179487182,0.04076121794871795
806,29,2,3,3,2,4,4,3,3,1,2,1,1,Laredo Medical Center,27.55417000000001,-99.46337,Webb,6693.0,111.55,2.1451923076923083,0.0536298076923077
807,24,3,5,1,2,2,4,2,2,3,1,0,0,Laredo Nursing and Rehabilitation Center,27.55417000000001,-99.46337,Webb,5840.0,97.33333333333331,1.871794871794872,0.0467948717948718
810,133,12,12,8,15,10,12,26,21,9,13,9,15,Larkspur Transitional Care,31.33969,-94.82173,Angelina,39055.0,650.9166666666666,12.517628205128204,0.3129407051282051
812,1,0,1,1,1,1,0,0,0,0,0,0,0,Las Brisas Rehabilitation and Wellness Suites,32.87458,-96.99758,Dallas,485.0,8.083333333333334,0.15544871794871795,0.0038862179487179492
813,43,0,1,3,7,8,3,6,8,6,3,2,2,Las Colinas of Westover,29.46217,-98.67596999999999,Bexar,13113.0,218.55,4.202884615384615,0.1050721153846154
815,68,4,3,7,7,7,4,7,5,13,7,7,12,Las Palmas Nursing and Rehabilitation Center,26.16531,-98.24764,Hidalgo,14640.0,244.0,4.6923076923076925,0.11730769230769232
816,4,0,0,0,0,0,1,1,0,1,1,0,0,Las Palmas Skilled Nursing and Rehabilitation,28.36133,-99.14499,La Salle,1062.0,17.7,0.3403846153846154,0.008509615384615385
817,81,4,6,12,10,8,4,7,10,8,10,2,6,LAS VENTANAS DE SOCORRO,31.64455,-106.27373,El Paso,22395.0,373.25,7.177884615384616,0.1794471153846154
818,111,11,9,15,13,11,16,9,7,8,7,8,7,Laurel Court,29.38147,-95.24205,Brazoria,30307.0,505.11666666666673,9.71378205128205,0.2428445512820513
819,23,4,4,4,2,1,3,3,2,0,0,0,1,Laurenwood Nursing and Rehabilitation,32.66017,-96.91393000000001,Dallas,6057.0,100.95,1.9413461538461536,0.04853365384615384
820,3,1,0,0,1,1,0,0,0,0,0,0,0,Lavaca Hospital District,29.377,-96.84376999999999,Lavaca,615.0,10.25,0.1971153846153846,0.004927884615384615
821,70,8,4,6,4,7,6,4,12,8,8,7,12,Lawrence Street Healthcare Center,30.09543,-95.58939000000001,Harris,18176.0,302.93333333333334,5.825641025641025,0.14564102564102566
825,8,1,0,0,1,1,0,0,1,2,2,0,0,Legacy at Jacksonville,31.9462,-95.25704,Cherokee,1926.0,32.1,0.6173076923076923,0.015432692307692309
826,13,3,4,1,0,2,0,1,0,1,2,0,0,Legacy Nursing And Rehabilitation,30.66126,-96.32265,Brazos,4029.0,67.15,1.2913461538461541,0.03228365384615385
827,53,4,8,6,3,3,6,4,5,2,6,2,5,Legacy Rehabilitation and Living,35.166309999999996,-101.88646,Randall,14253.0,237.55,4.568269230769231,0.11420673076923077
828,18,4,3,3,3,2,1,4,3,0,1,0,1,Legend Healthcare and Rehabilitation Euless,32.8147,-97.09676999999999,Tarrant,5680.0,94.66666666666669,1.8205128205128207,0.04551282051282052
829,89,16,12,13,11,11,7,9,12,4,2,4,8,Legend Healthcare and Rehabilitation Greenville,33.06878,-96.08534,Hunt,26877.0,447.95,8.614423076923076,0.21536057692307686
830,40,3,4,6,4,6,5,3,4,7,5,3,6,Legend Healthcare and Rehabilitation Paris,33.65811,-95.60422,Lamar,9942.0,165.7,3.1865384615384613,0.07966346153846153
831,68,2,9,6,9,3,3,11,10,5,6,5,7,Legend Oaks Healthcare And Rehabilitation,29.69772,-98.0702,Comal,15462.0,257.7,4.955769230769231,0.12389423076923076
833,32,2,1,4,1,3,3,2,4,1,1,7,5,Legend Oaks Healthcare and Rehabilitation Center,29.922179999999997,-95.54705,Harris,9346.0,155.76666666666668,2.995512820512821,0.07488782051282053
834,21,1,2,5,3,4,3,2,1,1,2,1,3,Legend Oaks Healthcare and Rehabilitation Center,29.29428,-98.53945,Bexar,4167.0,69.45,1.3355769230769232,0.03338942307692308
835,60,5,8,7,8,8,11,6,7,1,1,0,2,Legend Oaks Healthcare and Rehabilitation Ennis,32.32976,-96.59334,Ellis,17712.0,295.2,5.676923076923076,0.1419230769230769
836,31,2,6,6,8,6,6,2,4,1,1,0,1,Legend Oaks Healthcare and Rehabilitation Garland,32.96264,-96.65323000000001,Dallas,9961.0,166.01666666666668,3.1926282051282056,0.07981570512820514
838,16,0,1,3,1,5,3,4,1,0,0,1,0,Legend Oaks Healthcare and Rehabilitation Gladewater,32.5189,-94.95133,Smith,4200.0,70.0,1.3461538461538465,0.03365384615384616
840,126,9,7,14,13,9,16,17,7,15,13,11,11,Legend Oaks Healthcare and Rehabilitation of East Houston,29.83413,-95.14734,Harris,35920.0,598.6666666666666,11.512820512820511,0.2878205128205128
841,41,4,8,5,7,6,3,2,4,4,2,1,2,Legend Oaks Healthcare And Rehabilitation Of Fort Worth,32.93098,-97.28435,Tarrant,11803.0,196.71666666666667,3.7830128205128206,0.09457532051282053
842,10,1,0,1,2,0,0,0,0,0,0,2,5,Legend Oaks Healthcare And Rehabilitation Of North Houston,29.977759999999996,-95.57315,Harris,2388.0,39.8,0.7653846153846153,0.019134615384615385
843,44,11,6,9,5,1,6,5,6,3,2,2,1,Legend Oaks Healthcare And Rehabilitation Waxahachie,32.36912,-96.79744000000001,Ellis,15096.0,251.6,4.838461538461538,0.12096153846153845
844,10,1,0,2,0,2,0,2,1,2,1,1,0,Legend Oaks Healthcare and Rehabilitation West San Antonio,29.406259999999996,-98.62941,Bexar,1144.0,19.066666666666666,0.36666666666666653,0.009166666666666668
845,45,9,10,8,0,1,3,4,3,1,2,3,4,Legend Oaks Rehabilitation And Healthcare Of Kyle,29.99495,-97.82813,Hays,11945.0,199.08333333333331,3.8285256410256414,0.09571314102564103
848,1,0,0,0,0,0,0,0,0,1,1,1,1,Leonard Manor,33.39324000000001,-96.24331,Fannin,485.0,8.083333333333334,0.15544871794871795,0.0038862179487179492
849,16,1,1,1,0,1,1,1,1,2,4,3,2,Levelland Nursing and Rehabilitation Center,33.60538,-102.40278,Hockley,5238.0,87.3,1.678846153846154,0.04197115384615385
850,79,5,8,11,10,11,6,11,12,13,8,9,6,Lexington Medical Lodge,33.17365,-96.35309000000001,Collin,22161.0,369.35,7.102884615384616,0.1775721153846154
852,40,6,3,7,5,5,4,8,4,3,3,3,5,Lexington Place Nursing And Rehabilitation Center Of Nacogdoches,31.62169,-94.74495,Nacogdoches,12380.0,206.33333333333331,3.967948717948718,0.09919871794871796
853,17,2,2,2,4,4,4,2,0,3,3,2,4,Lexington Place Nursing and Rehabilitation Center Richland Hills,32.799659999999996,-97.20767,Tarrant,5493.0,91.55,1.7605769230769233,0.04401442307692308
854,1,0,0,0,0,0,0,0,1,0,0,0,0,Liberty Dayton Regional Medical Center,30.075359999999996,-94.73395,Liberty,249.0,4.15,0.07980769230769233,0.0019951923076923076
855,46,6,1,2,3,5,1,8,8,4,2,2,8,Liberty Health Care Center,30.075359999999996,-94.73395,Liberty,13510.0,225.16666666666663,4.330128205128204,0.10825320512820512
856,58,2,7,5,1,8,7,11,6,6,7,8,10,Life Care Center of Haltom,32.80369,-97.26755,Tarrant,16960.0,282.6666666666667,5.435897435897436,0.13589743589743591
857,102,13,9,19,10,13,4,5,8,9,15,15,11,Life Care Center of Plano,33.021370000000005,-96.74101999999999,Collin,26838.0,447.3,8.601923076923077,0.21504807692307693
860,32,5,5,5,3,3,1,1,5,1,3,1,0,Limestone Medical Center,31.50133,-96.51758000000001,Limestone,8496.0,141.6,2.7230769230769236,0.06807692307692308
861,1,0,0,0,0,0,0,0,0,0,0,0,1,Lindale Healthcare Center,32.5361,-95.43456,Smith,117.0,1.95,0.0375,0.0009375
862,12,0,2,1,2,4,3,3,2,2,2,1,1,Lindan Park Rehabilitation And Nursing Center,32.94882,-96.7102,Dallas,3680.0,61.33333333333334,1.1794871794871795,0.029487179487179487
865,21,1,3,1,1,3,3,0,1,3,1,4,1,"Live Oak Nursing Center, LP",28.25927,-98.14445,Live Oak,6021.0,100.35,1.929807692307692,0.0482451923076923
866,10,3,1,1,1,1,1,2,1,0,0,0,0,Llano Nursing and Rehabilitation Center,30.69023,-98.69483000000001,Llano,2820.0,47.0,0.903846153846154,0.022596153846153846
867,3,0,0,0,0,2,0,0,0,0,0,0,1,Lockney Health and Rehabilitation Center,34.1848,-101.38675,Floyd,945.0,15.75,0.30288461538461536,0.007572115384615385
868,33,4,3,3,4,4,4,4,3,3,3,3,7,Longhorn Village,30.37912,-97.8931,Travis,8913.0,148.55,2.856730769230769,0.07141826923076924
870,20,0,1,5,1,3,4,3,7,3,2,2,3,Longmeadow Healthcare Center,33.098420000000004,-97.32495,Denton,6276.0,104.6,2.011538461538461,0.05028846153846154
871,72,5,7,7,9,2,6,10,9,5,7,4,7,Longview Hill Nursing and Rehabilitation Center,32.58258,-94.72065,Gregg,18914.0,315.23333333333335,6.0621794871794865,0.1515544871794872
874,58,4,6,6,6,6,11,8,4,5,8,9,10,Los Arcos del Norte Care Center,31.9519,-106.43401000000001,El Paso,17150.0,285.8333333333333,5.496794871794871,0.13741987179487178
875,10,0,0,0,2,2,1,2,1,3,2,0,0,"Lubbock Health Care Center, LP",33.56969,-101.89126999999999,Lubbock,3810.0,63.5,1.2211538461538465,0.030528846153846163
876,1,0,0,0,0,0,0,0,0,0,0,1,0,Lubbock Hospitality House Nursing and Rehabilitation Center,33.54875,-101.91944000000001,Lubbock,315.0,5.25,0.10096153846153846,0.0025240384615384612
877,7,1,1,0,1,1,0,1,0,2,1,0,0,Lubbock Ltc Nursing And Rehabilitation,33.56969,-101.89126999999999,Lubbock,2139.0,35.65,0.6855769230769231,0.017139423076923076
880,11,1,3,1,1,0,0,1,3,1,0,0,1,Lutheran Sunset Ministry,31.80782,-97.56147,Bosque,3729.0,62.15,1.1951923076923077,0.029879807692307688
881,21,1,4,1,3,1,2,0,3,0,3,0,3,Lynn County Hospital District,33.1708,-101.83551,Lynn,4293.0,71.55,1.3759615384615385,0.03439903846153846
883,22,2,4,4,2,3,4,2,2,3,2,3,3,Lynwood Nursing And Rehabilitation,33.60538,-102.40278,Hockley,6462.0,107.7,2.0711538461538463,0.05177884615384616
884,4,1,1,0,0,0,0,0,1,0,0,0,1,Lytle Nursing Home,29.20448,-98.77533000000001,Atascosa,826.0,13.766666666666667,0.2647435897435897,0.006618589743589744
885,2,0,0,1,0,0,1,1,1,0,0,0,0,Mabank Nursing Home,32.433,-96.07743,Henderson,800.0,13.333333333333336,0.25641025641025644,0.006410256410256411
887,59,4,3,4,4,10,9,0,4,6,6,6,5,Madison Medical Resort,31.92649,-102.35443000000001,Ector,17793.0,296.55,5.702884615384615,0.1425721153846154
888,43,4,4,7,4,4,10,8,6,0,0,0,0,Madison Saint Joseph Health Center,30.954159999999998,-95.90559,Madison,12819.0,213.65,4.108653846153846,0.10271634615384614
889,22,3,0,0,3,3,4,2,3,3,1,0,0,Madisonville Care Center,30.954159999999998,-95.90559,Madison,4876.0,81.26666666666667,1.5628205128205128,0.03907051282051282
891,2,0,0,0,0,0,0,0,1,0,0,1,0,"Magnified Health and Rehab of Anderson, LLC",30.60907000000001,-96.32603,Brazos,498.0,8.3,0.15961538461538466,0.003990384615384615
892,6,1,1,0,0,0,1,0,2,0,1,0,0,Magnolia Living and Rehabilitation,29.691059999999997,-97.6345,Caldwell,1890.0,31.5,0.6057692307692307,0.01514423076923077
893,31,1,1,2,2,3,1,4,2,2,3,5,7,Magnolia Manor,29.94725,-93.91849,Jefferson,8677.0,144.61666666666667,2.781089743589744,0.06952724358974359
894,13,2,1,1,0,3,0,0,4,0,1,1,0,Magnolia Place,32.7922,-94.306,Marion,4095.0,68.25,1.3125,0.0328125
895,17,2,2,2,1,2,2,3,4,4,3,1,2,Magnolia Place Health Care,30.075359999999996,-94.73395,Liberty,5685.0,94.75,1.8221153846153848,0.04555288461538461
896,5,1,1,0,1,0,1,2,0,0,0,0,0,Magnolia Place Skilled Nursing And Rehab,32.7922,-94.306,Marion,1575.0,26.25,0.5048076923076923,0.012620192307692308
899,30,3,2,4,0,2,1,3,3,3,4,3,3,"Manor Park, Inc",32.03347,-102.21158,Midland,8856.0,147.6,2.838461538461538,0.07096153846153845
900,91,12,9,14,8,10,9,13,12,5,4,4,7,Mansfield Medical Lodge,32.5698,-97.14273,Tarrant,27741.0,462.35,8.891346153846154,0.22228365384615384
901,3,0,1,0,0,0,1,2,1,0,0,0,0,Mansfield Nursing and Rehabilitation Center,32.5698,-97.14273,Tarrant,1013.0,16.883333333333333,0.3246794871794872,0.00811698717948718
903,18,2,2,1,1,1,3,2,3,4,2,1,1,Marine Creek Health and Rehabilitation Center,32.81451,-97.35244,Tarrant,4560.0,76.0,1.4615384615384617,0.03653846153846154
904,43,7,1,2,2,8,6,5,8,2,4,0,2,Marshall Manor Nursing and Rehabilitation Center,32.572990000000004,-94.42296999999999,Harrison,13083.0,218.05,4.193269230769231,0.10483173076923076
905,14,1,2,0,0,0,1,1,1,1,3,4,1,Marshall Manor West,32.572990000000004,-94.42296999999999,Harrison,3712.0,61.86666666666667,1.1897435897435895,0.029743589743589743
908,47,5,7,2,3,4,7,1,4,7,7,4,0,Mason Creek Transitional Care of Katy,29.7463,-95.73832,Harris,14233.0,237.21666666666667,4.561858974358975,0.11404647435897435
910,51,7,6,6,6,6,3,4,3,2,3,2,5,Matagorda House Healthcare Center At The Legacy Campus,28.899590000000003,-95.88091,Matagorda,14745.0,245.75,4.725961538461538,0.11814903846153844
911,5,0,0,2,1,1,0,2,0,0,0,0,0,Matagorda Nursing and Rehabilitation Center,28.899590000000003,-95.88091,Matagorda,1773.0,29.55,0.5682692307692307,0.014206730769230768
912,26,6,5,0,3,3,0,0,0,0,3,4,6,Matlock Place Health and Rehabilitation Center,32.62262,-97.09226,Tarrant,7280.0,121.33333333333331,2.333333333333333,0.05833333333333333
913,60,7,3,6,1,6,5,5,7,7,3,6,7,Maverick Nursing and Rehabilitation Center,28.752059999999997,-100.31076,Maverick,17580.0,293.0,5.634615384615384,0.1408653846153846
916,33,3,3,2,2,6,5,9,10,4,4,2,2,Mcallen Nursing Center,26.21583,-98.23917,Hidalgo,8629.0,143.81666666666666,2.765705128205128,0.0691426282051282
917,133,4,14,8,13,11,8,11,17,18,19,15,14,McAllen Transitional Care Center,26.16531,-98.24764,Hidalgo,31069.0,517.8166666666667,9.958012820512822,0.24895032051282054
919,1,0,0,0,0,0,0,1,0,0,0,0,0,McCamey Hospital,31.21544,-102.15319000000001,Upton,183.0,3.05,0.05865384615384616,0.0014663461538461538
922,81,9,8,9,7,7,8,13,13,15,21,9,10,McKinney Healthcare and Rehabilitation Center,33.16547,-96.59469,Collin,21721.0,362.01666666666665,6.961858974358973,0.17404647435897436
924,6,0,0,0,0,1,1,2,0,0,1,2,0,McLean Care Center,35.24304,-100.64262,Gray,1692.0,28.2,0.5423076923076923,0.013557692307692307
925,15,5,4,3,1,1,1,0,3,1,1,1,0,Meadow Lake Health Center,32.23855,-95.32063000000001,Smith,5187.0,86.45,1.6625,0.0415625
926,9,2,0,3,1,1,2,1,1,1,0,0,0,Meadowbrook Care Center,33.43311,-96.55161,Grayson,2841.0,47.35,0.9105769230769232,0.02276442307692308
927,1,0,0,0,1,0,0,0,0,0,0,0,0,Medical Arts Hospital,32.69327,-102.01053,Dawson,249.0,4.15,0.07980769230769233,0.0019951923076923076
935,15,2,2,0,0,2,2,3,1,2,0,1,2,Medina Regional Hospital,29.4267,-99.15448,Medina,4327.0,72.11666666666666,1.3868589743589743,0.034671474358974365
936,2,0,0,0,0,0,0,0,1,1,1,1,1,Medina Valley Health and Rehabilitation Center,29.3573,-98.88669,Medina,698.0,11.633333333333333,0.2237179487179487,0.005592948717948717
939,112,9,12,16,12,9,14,10,7,10,6,4,11,Memorial City Health and Rehabilitation Center,29.79764,-95.49174000000001,Harris,33536.0,558.9333333333333,10.748717948717948,0.2687179487179487
943,9,1,1,0,0,0,2,2,1,1,1,2,0,Memorial Hermann Hospital Skilled Nursing Unit,29.70629000000001,-95.4026,Harris,2797.0,46.61666666666667,0.896474358974359,0.022411858974358972
948,13,1,1,0,1,0,1,0,3,1,2,0,3,Memorial Hospital,32.68905,-102.74146,Gaines,3303.0,55.05,1.0586538461538462,0.026466346153846156
949,8,0,0,1,0,2,0,0,1,2,0,0,2,Memorial Medical Center,28.6023,-96.60786,Calhoun,2124.0,35.4,0.6807692307692308,0.01701923076923077
950,27,2,4,2,2,2,2,2,3,1,2,2,5,Memorial Medical Nursing Center,29.4646,-98.49266,Bexar,6035.0,100.58333333333331,1.934294871794872,0.0483573717948718
951,1,0,0,0,0,0,0,0,1,0,0,0,0,Memorial Nursing and Rehabilitation Center,35.89512,-102.02431999999999,Moore,315.0,5.25,0.10096153846153846,0.0025240384615384612
952,3,0,0,0,2,0,0,0,0,0,0,1,0,Memphis Convalescent Center,34.84545,-100.50845,Hall,945.0,15.75,0.30288461538461536,0.007572115384615385
953,2,0,0,0,0,0,0,0,0,0,0,2,1,Menard Manor,30.908,-99.83252,Menard,696.0,11.6,0.22307692307692306,0.005576923076923077
955,8,0,0,0,1,2,1,1,1,1,2,0,1,Meridian Care,29.5168,-98.363,Bexar,1786.0,29.766666666666666,0.5724358974358974,0.014310897435897437
956,26,3,1,3,1,2,2,2,1,5,4,4,2,Meridian Care of Alice,27.718429999999998,-98.14284,Jim Wells,8652.0,144.2,2.7730769230769234,0.06932692307692308
957,3,0,0,1,0,1,0,0,0,0,0,1,0,Meridian Care Of Hebbronville,27.104340000000004,-98.78676,Jim Hogg,813.0,13.55,0.2605769230769231,0.006514423076923077
958,1,0,0,0,0,0,0,0,0,0,0,1,0,Meridian Care of Monte Vista,29.4646,-98.49266,Bexar,179.0,2.9833333333333334,0.057371794871794876,0.001434294871794872
959,15,1,0,0,1,0,2,1,0,3,0,4,3,Meridian Of Temple,31.096220000000002,-97.41034,Bell,4395.0,73.25,1.4086538461538465,0.035216346153846154
960,1,0,0,0,0,0,1,0,0,0,0,0,0,Merkel Nursing Center,32.47379,-100.03345999999999,Taylor,117.0,1.95,0.0375,0.0009375
963,9,0,1,0,0,1,3,2,1,0,0,2,1,Mesa Vista Health Center,29.52465,-98.60749,Bexar,1921.0,32.016666666666666,0.6157051282051282,0.015392628205128206
964,8,1,0,1,0,2,0,1,0,1,1,1,0,"Mesquite Tree Nursing Center, LP",32.77003,-96.61487,Dallas,1434.0,23.9,0.4596153846153846,0.011490384615384614
966,20,0,0,5,3,1,1,3,2,3,1,2,0,Methodist Hospital Skilled Nursing Unit,29.70629000000001,-95.4026,Harris,5508.0,91.8,1.765384615384615,0.04413461538461538
969,5,0,1,0,0,2,0,1,1,1,0,1,1,"Metroplex Nursing and Rehabilitation, LP",32.72757,-96.99439,Dallas,1441.0,24.016666666666666,0.4618589743589743,0.011546474358974358
970,6,1,1,0,1,2,1,1,0,0,0,0,0,Mexia LTC Nursing and Rehabilitation,31.65532,-96.46855,Limestone,1956.0,32.6,0.6269230769230769,0.015673076923076918
972,11,1,0,1,0,1,2,1,2,2,2,1,0,Mid Valley Nursing And Rehabilitation,26.1748,-97.91091,Hidalgo,2517.0,41.95,0.8067307692307693,0.020168269230769236
974,18,0,1,1,3,3,4,3,1,1,1,2,1,Midland Medical Lodge,32.051140000000004,-102.05955,Midland,5868.0,97.8,1.8807692307692307,0.04701923076923077
975,68,6,8,8,11,14,15,10,8,6,4,4,5,MIDLOTHIAN HEALTHCARE CENTER,32.47047,-96.98898,Ellis,26070.0,434.5,8.35576923076923,0.20889423076923075
976,22,2,3,2,2,3,3,2,1,1,2,2,0,Midwestern Healthcare Center,33.86456,-98.49109,Wichita,6204.0,103.4,1.9884615384615385,0.04971153846153846
977,13,0,1,1,0,2,2,2,5,0,1,1,0,Millbrook Healthcare and Rehabilitation Center,32.57462,-96.75069,Dallas,4133.0,68.88333333333334,1.3246794871794874,0.03311698717948718
978,3,0,0,0,0,0,0,0,1,0,2,0,0,Mineola Healthcare Residence,32.67876,-95.4459,Wood,813.0,13.55,0.2605769230769231,0.006514423076923077
979,44,7,8,7,3,4,5,7,0,5,0,2,7,Mineral Wells Nursing and Rehabilitation,32.80005,-98.12755,Palo Pinto,11098.0,184.96666666666667,3.5570512820512823,0.08892628205128206
980,24,3,2,6,2,5,3,3,4,0,0,0,1,Mira Vista Court,32.667590000000004,-97.41797,Tarrant,7340.0,122.33333333333331,2.352564102564102,0.05881410256410256
981,2,1,0,0,0,0,1,1,1,0,0,0,0,Mirador,27.6603,-97.36893,Nueces,866.0,14.433333333333335,0.2775641025641026,0.006939102564102564
982,9,4,1,2,1,2,1,2,0,0,0,1,1,Mission Care Center,29.68612000000001,-95.30343,Harris,3249.0,54.15,1.0413461538461541,0.02603365384615385
983,1,0,0,0,0,0,0,1,0,0,0,0,0,Mission Manor Healthcare Residence,33.17279,-95.21222,Franklin,381.0,6.35,0.1221153846153846,0.0030528846153846157
985,52,4,1,3,5,2,9,5,7,1,6,9,7,Mission Nursing and Rehabilitation Center,26.2281,-98.37665,Hidalgo,12828.0,213.8,4.111538461538462,0.10278846153846156
988,31,1,2,6,4,2,0,2,4,3,5,4,5,MISSION VALLEY NURSING AND TRANSITIONAL CARE,26.2281,-98.37665,Hidalgo,7079.0,117.98333333333332,2.268910256410257,0.05672275641025641
990,2,0,0,0,0,0,0,0,1,1,0,0,0,Mitchell County Nursing and Rehabilitation Center,32.31554000000001,-100.91776999999999,Mitchell,432.0,7.2,0.13846153846153847,0.003461538461538461
991,1,0,0,0,0,0,0,0,0,1,0,0,0,Modern Senior Living,32.75075,-96.75806,Dallas,447.0,7.45,0.14326923076923076,0.003581730769230769
992,1,0,0,0,0,0,0,0,0,0,0,0,1,Monahans Managed Care Center,31.545790000000004,-102.85809,Ward,381.0,6.35,0.1221153846153846,0.0030528846153846157
993,6,0,0,0,3,2,1,1,1,0,0,0,0,Monarch Pavilion Rehabilitation,32.83251,-96.84851,Dallas,1664.0,27.73333333333333,0.5333333333333333,0.01333333333333333
994,1,0,0,0,0,0,0,0,0,0,1,0,0,"Monte Siesta Nursing and Rehabilitation, LP",30.2659,-97.86658,Travis,381.0,6.35,0.1221153846153846,0.0030528846153846157
996,22,6,6,2,0,2,1,4,2,0,1,0,0,Monument Hill Nursing And Rehabilitation Center,29.91566,-96.88946999999999,Fayette,6534.0,108.9,2.0942307692307693,0.052355769230769234
999,40,0,5,1,5,9,4,4,4,2,2,8,7,Morningside Manor Health Care,29.468759999999996,-98.52824,Bexar,12174.0,202.9,3.9019230769230764,0.09754807692307693
1000,1,0,0,0,0,0,0,1,0,0,0,0,0,Morningside Ministries at the Chandler Estate,29.4646,-98.49266,Bexar,111.0,1.85,0.035576923076923075,0.0008894230769230769
1003,62,4,4,8,10,9,7,8,6,6,10,3,8,Mountain View Health And Rehabilitation,31.78412,-106.4979,El Paso,18592.0,309.8666666666667,5.958974358974358,0.14897435897435898
1006,77,8,9,14,5,7,6,8,6,7,6,4,7,MRC Creekside,30.64369000000001,-95.53981,Walker,24109.0,401.81666666666666,7.7272435897435905,0.19318108974358972
1009,34,6,9,12,10,6,5,2,1,0,0,3,1,Muenster Memorial Hospital Swing Bed,33.68568,-97.38545,Cooke,11144.0,185.7333333333333,3.5717948717948715,0.08929487179487179
