ProviderName,PID,ProviderPracticeAddress1,ProviderPracticeAddress2,ProviderPracticeCity,ProviderPracticeStateCode,ProviderPracticeZipCode,County,Full_Address,long,lat
Accel at College Station,6,1500 MEDICAL AVE,,COLLEGE STATION,TX,77845,,1500 MEDICAL AVE COLLEGE STATION TX 77845,-96.27413,30.584566
Accel at Willow Bend,8,2620 COMMUNICATIONS PKWY,,PLANO,TX,75093,Collin,2620 COMMUNICATIONS PKWY PLANO TX 75093,-96.83162449999999,33.0360868
Adora Midtown Park,9,8130 MEADOW RD,,DALLAS,TX,75231,,8130 MEADOW RD DALLAS TX 75231,-96.7667144,32.8871395
Advance Healthcare Solutions,10,4863 KEMP BLVD,,WICHITA FALLS,TX,76308,Wichita,4863 KEMP BLVD WICHITA FALLS TX 76308,-98.53581559999999,33.853623
Advanced Health and Rehabilitation Center of Garland,11,1201 COLONEL DR,,GARLAND,TX,75043,Dallas,1201 COLONEL DR GARLAND TX 75043,-96.6143496,32.8754926
Advanced Rehab and Healthcare of Athens,13,121 COMMONS DR,,ATHENS,TX,75751,Henderson,121 COMMONS DR ATHENS TX 75751,-95.8555207,32.2048735
Advanced Rehab of Wichita Falls,14,4810 KEMP BLVD,,WICHITA FALLS,TX,76308,Wichita,4810 KEMP BLVD WICHITA FALLS TX 76308,-98.53662299999999,33.85345
Advanced Rehabilitation and Healthcare of Bowie,15,700 W US HIGHWAY 287 S,,BOWIE,TX,76230,Montague,700 W US HIGHWAY 287 S BOWIE TX 76230,-97.8618943,33.550408
Adventhealth Care Center Burleson,17,301 HUGULEY BLVD,,BURLESON,TX,76028,Johnson,301 HUGULEY BLVD BURLESON TX 76028,-97.31537379999999,32.5837823
Afton Oaks Healthcare And Rehabilitation Center,18,7514 KINGSLEY ST,,HOUSTON,TX,77087,Harris,7514 KINGSLEY ST HOUSTON TX 77087,-95.29240539999999,29.6866149
Alameda Oaks Nursing Center,19,1101 S ALAMEDA ST,,CORPUS CHRISTI,TX,78404,Nueces,1101 S ALAMEDA ST CORPUS CHRISTI TX 78404,-97.40349669999999,27.7806358
Alamo Heights Health and Rehabilitation Center,20,8223 BROADWAY ST,,SAN ANTONIO,TX,78209,Bexar,8223 BROADWAY ST SAN ANTONIO TX 78209,-98.4688099,29.5127926
Alfredo Gonzalez Texas State Veterans Home,21,301 E YUMA AVE,,MCALLEN,TX,78503,Hidalgo,301 E YUMA AVE MCALLEN TX 78503,-98.2193327,26.1795407
ALLEGIANT WELLNESS AND REHAB,22,724 W RENDON CROWLEY RD,,FORT WORTH,TX,76036,,724 W RENDON CROWLEY RD FORT WORTH TX 76036,-97.33281079999999,32.5785085
Alpine Terrace,23,746 ALPINE DR,,KERRVILLE,TX,78028,Kerr,746 ALPINE DR KERRVILLE TX 78028,-99.11187590000002,30.06671
Alta Vista Rehabilitation and Healthcare,25,510 PAREDES LINE RD,,BROWNSVILLE,TX,78521,Cameron,510 PAREDES LINE RD BROWNSVILLE TX 78521,-97.48758939999999,25.9296534
Alvarado Meadows Nursing and Rehabilitation Center,27,101 N PARKWAY DR,,ALVARADO,TX,76009,Johnson,101 N PARKWAY DR ALVARADO TX 76009,-97.21885689999999,32.4075721
Amarillo Center for Skilled Care,28,6641 W AMARILLO BLVD,,AMARILLO,TX,79106,Potter,6641 W AMARILLO BLVD AMARILLO TX 79106,-101.9100461,35.1980916
Ambrosio Guillen Texas State Veterans Home,29,9650 KENWORTHY ST,,EL PASO,TX,79924,El Paso,9650 KENWORTHY ST EL PASO TX 79924,-106.4311092,31.8886443
"Amistad Nursing Home and Rehabilitation Center, LLC",31,200 RIVERSIDE DR,,UVALDE,TX,78801,Uvalde,200 RIVERSIDE DR UVALDE TX 78801,-99.7750576,29.210977
Anderson Nursing Center,33,520 BRADBURN RD,,GRAND SALINE,TX,75140,Van Zandt,520 BRADBURN RD GRAND SALINE TX 75140,-95.70111159999999,32.6787586
Anson General Hospital,35,101 AVENUE J,,ANSON,TX,79501,Jones,101 AVENUE J ANSON TX 79501,-99.8950016,32.7679807
Apex Secure Care Brownfield,37,1101 E LAKE ST,,BROWNFIELD,TX,79316,Terry,1101 E LAKE ST BROWNFIELD TX 79316,-102.2616768,33.1829084
Arbor Grace Wellness Center,41,1241 E MARSHALL HOWARD BLVD,,LITTLEFIELD,TX,79339,Lamb,1241 E MARSHALL HOWARD BLVD LITTLEFIELD TX 79339,-102.3187594,33.9035605
Arbor Terrace Healthcare Center,42,609 RIO CONCHO DR,,SAN ANGELO,TX,76903,Tom Green,609 RIO CONCHO DR SAN ANGELO TX 76903,-100.4235893,31.459297
Arboretum Nursing and Rehabilitation Center of Winnie,43,1215 STATE HIGHWAY 124,,WINNIE,TX,77665,Chambers,1215 STATE HIGHWAY 124 WINNIE TX 77665,-94.3830945,29.8138653
Arbrook Plaza,45,401 W ARBROOK BLVD,,ARLINGTON,TX,76014,Tarrant,401 W ARBROOK BLVD ARLINGTON TX 76014,-97.11112399999999,32.6853793
Archer City Nursing Center,46,201 E CHESTNUT ST,,ARCHER CITY,TX,76351,Archer,201 E CHESTNUT ST ARCHER CITY TX 76351,-98.62525289999999,33.5915947
Arlington Heights Health and Rehabilitation Center,47,4825 WELLESLEY AVE,,FORT WORTH,TX,76107,Tarrant,4825 WELLESLEY AVE FORT WORTH TX 76107,-97.3926116,32.7247365
Arlington Residence and Rehabilitation Center,48,405 DUNCAN PERRY RD,,ARLINGTON,TX,76011,Tarrant,405 DUNCAN PERRY RD ARLINGTON TX 76011,-97.0411486,32.7460826
Arlington Villa Nursing Retirement Center,49,2601 W RANDOL MILL RD,,ARLINGTON,TX,76012,Tarrant,2601 W RANDOL MILL RD ARLINGTON TX 76012,-97.144267,32.7561719
Army Residence Community Health Care Center,50,7400 CRESTWAY RD,,SAN ANTONIO,TX,78239,Bexar,7400 CRESTWAY RD SAN ANTONIO TX 78239,-98.3427516,29.5209401
Ashford Gardens,52,7210 NORTHLINE DR,,HOUSTON,TX,77076,Harris,7210 NORTHLINE DR HOUSTON TX 77076,-95.3972682,29.8665626
Ashford Hall,53,2021 SHOAF DR,,IRVING,TX,75061,Dallas,2021 SHOAF DR IRVING TX 75061,-96.9478371,32.83494659999999
Ashton Medical Lodge,54,801 S LOOP 250 W,,MIDLAND,TX,79703,,801 S LOOP 250 W MIDLAND TX 79703,-102.1427272,31.9550412
Ashton Park Care Center,55,210 GULF FWY,,TEXAS CITY,TX,77591,Galveston,210 GULF FWY TEXAS CITY TX 77591,-95.01446729999999,29.3856037
Athens Healthcare and Rehabilitation,56,305 S PALESTINE ST,,ATHENS,TX,75751,Henderson,305 S PALESTINE ST ATHENS TX 75751,-95.85341919999999,32.2006721
Austin Healthcare And Rehabilitation,59,3509 ROGGE LN,,AUSTIN,TX,78723,Travis,3509 ROGGE LN AUSTIN TX 78723,-97.6744382,30.3006455
Austin Retirement and Nursing Center,60,6909 BURNET LN,,AUSTIN,TX,78757,Travis,6909 BURNET LN AUSTIN TX 78757,-97.73585650000001,30.3459142
AUSTIN WELLNESS AND REHABILITATION,61,11406 RUSTIC ROCK DR,,AUSTIN,TX,78750,Travis,11406 RUSTIC ROCK DR AUSTIN TX 78750,-97.78259399999999,30.430048
Autumn Leaves,64,1010 EMERALD ISLE DR,,DALLAS,TX,75218,Dallas,1010 EMERALD ISLE DR DALLAS TX 75218,-96.7110632,32.8289624
Autumn Leaves Nursing and Rehabilitation,65,321 KILGORE DR,,HENDERSON,TX,75652,Rusk,321 KILGORE DR HENDERSON TX 75652,-94.7905588,32.1729603
Autumn Winds,66,3301 FARM RD 3009,,SCHERTZ,TX,78154,Guadalupe,3301 FARM RD 3009 SCHERTZ TX 78154,-98.26725619999999,29.5840208
Avalon Place Kirbyville,67,700 N HERNDON AVE,,KIRBYVILLE,TX,75956,Jasper,700 N HERNDON AVE KIRBYVILLE TX 75956,-93.9056804,30.6673275
Avalon Place Trinity,68,808 S ROBB ST,,TRINITY,TX,75862,Trinity,808 S ROBB ST TRINITY TX 75862,-95.3764667,30.9260122
Avalon Place Wharton,69,1405 VALHALLA DR,,WHARTON,TX,77488,Wharton,1405 VALHALLA DR WHARTON TX 77488,-96.11613770000001,29.3274871
Avante Rehabilitation and Care Center,70,225 N SOWERS RD,,IRVING,TX,75061,Dallas,225 N SOWERS RD IRVING TX 75061,-96.9534219,32.815648
Azalea Trail Nursing and Rehabilitation Center,72,411 SPRINGCREEK RD,,GRAND SALINE,TX,75140,Van Zandt,411 SPRINGCREEK RD GRAND SALINE TX 75140,-95.70453739999999,32.6774407
Azle Manor Health Care and Rehabilitation,73,721 DUNAWAY LN,,AZLE,TX,76020,Tarrant,721 DUNAWAY LN AZLE TX 76020,-97.53242449999999,32.8992429
Balch Springs Health and Rehabilitation,74,4200 SHEPHERD LN,,MESQUITE,TX,75180,Dallas,4200 SHEPHERD LN MESQUITE TX 75180,-96.6135909,32.7121169
Ballinger Healthcare and Rehabilitation Center,75,2001 N 6TH ST,,BALLINGER,TX,76821,Runnels,2001 N 6TH ST BALLINGER TX 76821,-99.9654846,31.7524337
Bandera Nursing and Rehabilitation Center,77,222 FM 1077,,BANDERA,TX,78003,Bandera,222 FM 1077 BANDERA TX 78003,-99.0668463,29.7197405
Bangs Nursing and Rehabilitation Center,78,1105 E FITZGERALD ST,,BANGS,TX,76823,Brown,1105 E FITZGERALD ST BANGS TX 76823,-99.1198916,31.7135864
Bastrop Lost Pines Nursing and Rehabilitation Center,80,430 OLD AUSTIN HWY,,BASTROP,TX,78602,Bastrop,430 OLD AUSTIN HWY BASTROP TX 78602,-97.33110769999999,30.1088182
Bastrop Nursing Center,81,400 OLD AUSTIN HWY,,BASTROP,TX,78602,Bastrop,400 OLD AUSTIN HWY BASTROP TX 78602,-97.330118,30.1087489
Bay Villa Healthcare Center,82,1800 13TH ST,,BAY CITY,TX,77414,Matagorda,1800 13TH ST BAY CITY TX 77414,-95.9686357,28.9891252
Baybrooke Village Care and Rehabilitation Center,83,8300 ELDORADO PKWY,,MCKINNEY,TX,75070,Collin,8300 ELDORADO PKWY MCKINNEY TX 75070,-96.7252328,33.1769014
Baylor Scott And White Continuing Care Hospital,84,546 N KEGLEY RD,,TEMPLE,TX,76502,Bell,546 N KEGLEY RD TEMPLE TX 76502,-97.39906479999999,31.1181142
Bayou Pines Care Center,90,4905 FLEMING ST,,LA MARQUE,TX,77568,Galveston,4905 FLEMING ST LA MARQUE TX 77568,-95.011989,29.3768752
Baywind Village Skilled Nursing and Rehabilitation,92,411 ALABAMA AVE,,LEAGUE CITY,TX,77573,Galveston,411 ALABAMA AVE LEAGUE CITY TX 77573,-95.08325459999999,29.5209047
Baywood Crossing Rehabilitation and Healthcare Center,93,5020 SPACE CENTER BLVD,,PASADENA,TX,77505,Harris,5020 SPACE CENTER BLVD PASADENA TX 77505,-95.14393989999999,29.6354331
Beacon Harbor Healthcare and Rehabilitation,94,6700 HERITAGE PKWY,,ROCKWALL,TX,75087,Rockwall,6700 HERITAGE PKWY ROCKWALL TX 75087,-96.50572629999999,32.9195759
Beacon Hill,95,3515 S PARK AVE,,DENISON,TX,75020,Grayson,3515 S PARK AVE DENISON TX 75020,-96.5701229,33.721997
Beaumont Health Care Center,96,795 LINDBERGH DR,,BEAUMONT,TX,77707,Jefferson,795 LINDBERGH DR BEAUMONT TX 77707,-94.1551354,30.0694103
Beaumont Nursing and Rehabilitation,97,1175 DENTON ST,,BEAUMONT,TX,77707,Jefferson,1175 DENTON ST BEAUMONT TX 77707,-94.13782230000001,30.0668457
Bedford Wellness And Rehabilitation,98,2001 FOREST RIDGE DR,,BEDFORD,TX,76021,Tarrant,2001 FOREST RIDGE DR BEDFORD TX 76021,-97.14262629999999,32.8416467
Beechnut Manor,99,12777 BEECHNUT ST,,HOUSTON,TX,77072,Harris,12777 BEECHNUT ST HOUSTON TX 77072,-95.6064147,29.6881646
Bel Air at Teravista,100,4105 TERAVISTA CLUB DR,,ROUND ROCK,TX,78665,Williamson,4105 TERAVISTA CLUB DR ROUND ROCK TX 78665,-97.6690963,30.5689238
Bellville Medical Center,104,44 N CUMMINGS ST,,BELLVILLE,TX,77418,Austin,44 N CUMMINGS ST BELLVILLE TX 77418,-96.2601684,29.9531252
Belterra Health And Rehabilitation Center,105,2170 N LAKE FOREST DR,,MCKINNEY,TX,75071,Collin,2170 N LAKE FOREST DR MCKINNEY TX 75071,-96.6774281,33.2210818
Benbrook Nursing and Rehabilitation Center,107,1000 MCKINLEY ST,,BENBROOK,TX,76126,Tarrant,1000 MCKINLEY ST BENBROOK TX 76126,-97.464995,32.677347
Bertram Nursing and Rehab Center,108,540 E STATE HIGHWAY 29,,BERTRAM,TX,78605,Burnet,540 E STATE HIGHWAY 29 BERTRAM TX 78605,-98.06025389999999,30.745929
Big Bend Regional Medical Center,109,2600 N STATE HIGHWAY 118,,ALPINE,TX,79830,Brewster,2600 N STATE HIGHWAY 118 ALPINE TX 79830,-103.6707306,30.3840121
Big Spring Center For Skilled Care,111,3701 WASSON RD,,BIG SPRING,TX,79720,Howard,3701 WASSON RD BIG SPRING TX 79720,-101.4909605,32.2114204
"Birchwood Nursing and Rehabilitation, LP",112,110 HIGHWAY 64 W,,COOPER,TX,75432,Delta,110 HIGHWAY 64 W COOPER TX 75432,-95.700328,33.375409
Bishop Davies Nursing Center,114,2712 HURSTVIEW DR,,HURST,TX,76054,Tarrant,2712 HURSTVIEW DR HURST TX 76054,-97.1777633,32.8658003
Bivins Pointe,115,6600 KILLGORE DR,,AMARILLO,TX,79106,Potter,6600 KILLGORE DR AMARILLO TX 79106,-101.9114968,35.2020569
Blanco Villa Nursing and Rehabilitation,116,8020 BLANCO RD,,SAN ANTONIO,TX,78216,Bexar,8020 BLANCO RD SAN ANTONIO TX 78216,-98.50542879999999,29.5361906
Blue Skies of Texas East,117,4917 RAVENSWOOD DR,,SAN ANTONIO,TX,78227,Bexar,4917 RAVENSWOOD DR SAN ANTONIO TX 78227,-98.646996,29.38282629999999
Blue Skies of Texas West,118,5100 JOHN D RYAN BLVD,,SAN ANTONIO,TX,78245,Bexar,5100 JOHN D RYAN BLVD SAN ANTONIO TX 78245,-98.7357274,29.3820673
Bluebonnet Nursing And Rehabilitation,119,696 FM 99,,KARNES CITY,TX,78118,Karnes,696 FM 99 KARNES CITY TX 78118,-97.909956,28.880025
"Bonham Nursing and Rehabilitation, LP",121,709 W 5TH ST,,BONHAM,TX,75418,Fannin,709 W 5TH ST BONHAM TX 75418,-96.1861373,33.5779909
BONNE VIE,122,8595 MEDICAL CENTER BLVD,,PORT ARTHUR,TX,77640,,8595 MEDICAL CENTER BLVD PORT ARTHUR TX 77640,-93.99732610000001,29.9408055
Bonner Street Plaza Healthcare and Rehabilitation,123,421 S BONNER ST,,JACKSONVILLE,TX,75766,Cherokee,421 S BONNER ST JACKSONVILLE TX 75766,-95.27372249999999,31.9599482
Borger Healthcare Center,124,1316 S FLORIDA ST,,BORGER,TX,79007,Hutchinson,1316 S FLORIDA ST BORGER TX 79007,-101.3932003,35.6518894
Brady West Rehabilitation and Nursing Center,126,2201 MENARD HWY,,BRADY,TX,76825,McCulloch,2201 MENARD HWY BRADY TX 76825,-99.3373531,31.1105554
Brazos at Waco,127,2430 MARKET PLACE DR,,WACO,TX,76711,,2430 MARKET PLACE DR WACO TX 76711,-97.1580654,31.50218109999999
Brazos Towers At Bayou Manor,128,4141 S BRAESWOOD BLVD,,HOUSTON,TX,77025,Harris,4141 S BRAESWOOD BLVD HOUSTON TX 77025,-95.4445719,29.68678
Brazos Valley Care Homebrazos Valley Nursing And Rehabilitation Center,129,605 S AVENUE F,,KNOX CITY,TX,79529,Knox,605 S AVENUE F KNOX CITY TX 79529,-99.8116378,33.4122543
Brazosview Healthcare Center,131,2127 PRESTON ST,,RICHMOND,TX,77469,Fort Bend,2127 PRESTON ST RICHMOND TX 77469,-95.7818774,29.58480209999999
Bremond Nursing and Rehabilitation Center,132,211 N MAIN ST,,BREMOND,TX,76629,Robertson,211 N MAIN ST BREMOND TX 76629,-96.6748243,31.1676549
Brenham Nursing and Rehabilitation Center,133,400 E SAYLES ST,,BRENHAM,TX,77833,Washington,400 E SAYLES ST BRENHAM TX 77833,-96.3980449,30.17923529999999
Brentwood Place I,136,35052 S BUCKNER BLVD,,DALLAS,TX,75227,Dallas,35052 S BUCKNER BLVD DALLAS TX 75227,-96.6827556,32.7711136
Brentwood Place II,137,8059 SCYENE CIR,,DALLAS,TX,75227,Dallas,8059 SCYENE CIR DALLAS TX 75227,-96.68603089999999,32.7660326
Brentwood Terrace Healthcare And Rehabilitation Center,139,2885 STILLHOUSE RD,,PARIS,TX,75462,Lamar,2885 STILLHOUSE RD PARIS TX 75462,-95.54003279999999,33.6922983
Briarcliff Health Center,140,3403 S VINE AVE,,TYLER,TX,75701,Smith,3403 S VINE AVE TYLER TX 75701,-95.3221057,32.3116868
"Briarcliff Health Center of Greenville, Inc",141,4400 WALNUT ST,,GREENVILLE,TX,75401,Hunt,4400 WALNUT ST GREENVILLE TX 75401,-96.12163790000001,33.1252539
Briarcliff Nursing and Rehabilitation Center,142,3201 N WARE RD,,MCALLEN,TX,78501,Hidalgo,3201 N WARE RD MCALLEN TX 78501,-98.2578293,26.2368201
Briarcliff Skilled Nursing Center,143,4054 NW LOOP,,CARTHAGE,TX,75633,Panola,4054 NW LOOP CARTHAGE TX 75633,-94.3670616,32.1491066
Briarwood Nursing And Rehabilitation,145,7633 BELLFORT ST,,HOUSTON,TX,77061,Harris,7633 BELLFORT ST HOUSTON TX 77061,-95.2846484,29.6731137
Bridgemoor Transitional Care of Round Rock,148,16219 RANCH ROAD 620 N,,AUSTIN,TX,78717,,16219 RANCH ROAD 620 N AUSTIN TX 78717,-97.72626699999999,30.4914293
Bridgemoor Transitional Care San Antonio,149,6035 ECKHERT RD,,SAN ANTONIO,TX,78229,,6035 ECKHERT RD SAN ANTONIO TX 78229,-98.60532390000002,29.5195556
BRIDGEMOOR TRANSITIONAL CARE WEBSTER,150,16130 GALVESTON RD,,WEBSTER,TX,77598,,16130 GALVESTON RD WEBSTER TX 77598,-95.1358656,29.5564925
Brightpointe At Lytle Lake,151,1201 CLARKS DR,,ABILENE,TX,79602,Taylor,1201 CLARKS DR ABILENE TX 79602,-99.70498049999999,32.4392458
BrightPointe at Rivershire,152,604 CONROE MEDICAL DR,,CONROE,TX,77304,Montgomery,604 CONROE MEDICAL DR CONROE TX 77304,-95.4731118,30.284443
Broadmoor Medical Lodge,155,5242 MEDICAL DR,,ROCKWALL,TX,75032,Rockwall,5242 MEDICAL DR ROCKWALL TX 75032,-96.459959,32.879282
Brodie Ranch Nursing And Rehabilitation Center,156,2101 FRATE BARKER RD,,AUSTIN,TX,78748,Travis,2101 FRATE BARKER RD AUSTIN TX 78748,-97.8407475,30.1485034
Bronte Health and Rehabilitation Center,157,900 S STATE ST,,BRONTE,TX,76933,Coke,900 S STATE ST BRONTE TX 76933,-100.2931862,31.8793029
Brookdale Alamo Heights,158,855 E BASSE RD,,SAN ANTONIO,TX,78209,Bexar,855 E BASSE RD SAN ANTONIO TX 78209,-98.4716,29.4980132
BROOKDALE BROADWAY CITYVIEW,159,5301 BRYANT IRVIN RD,,FORT WORTH,TX,76132,Tarrant,5301 BRYANT IRVIN RD FORT WORTH TX 76132,-97.4171811,32.66896699999999
Brookdale Galleria,160,2929 POST OAK BLVD,,HOUSTON,TX,77056,Harris,2929 POST OAK BLVD HOUSTON TX 77056,-95.46029370000001,29.7368404
Brookdale Guadalupe River Plaza,161,808 GUADALUPE ST,,KERRVILLE,TX,78028,Kerr,808 GUADALUPE ST KERRVILLE TX 78028,-99.1641851,30.055057
Brookdale Guadalupe River Plaza,162,135 PLAZA DR,,KERRVILLE,TX,78028,,135 PLAZA DR KERRVILLE TX 78028,-99.16451339999999,30.0550179
Brookdale Lakeway Healthcare Center,163,1917 LOHMANS CROSSING RD,,LAKEWAY,TX,78734,Travis,1917 LOHMANS CROSSING RD LAKEWAY TX 78734,-97.97554919999999,30.3477399
Brookdale Spicewood Springs,164,4401 SPICEWOOD SPRINGS RD,,AUSTIN,TX,78759,Travis,4401 SPICEWOOD SPRINGS RD AUSTIN TX 78759,-97.7590295,30.3720195
Brookdale Trinity Towers,165,101 N UPPER BROADWAY ST,,CORPUS CHRISTI,TX,78401,Nueces,101 N UPPER BROADWAY ST CORPUS CHRISTI TX 78401,-97.39707779999999,27.792273
Brookdale Westlake Hills,166,1034 LIBERTY PARK DR,,AUSTIN,TX,78746,Travis,1034 LIBERTY PARK DR AUSTIN TX 78746,-97.78756059999999,30.2677153
Brookdale Willowbrook Place,167,7450 WILLOWCHASE BLVD,,HOUSTON,TX,77070,,7450 WILLOWCHASE BLVD HOUSTON TX 77070,-95.541878,29.9702603
Brookdale Willowbrook Place Skilled Nursing,168,13500 BRETON RIDGE ST,,HOUSTON,TX,77070,Harris,13500 BRETON RIDGE ST HOUSTON TX 77070,-95.5427802,29.9697721
Brookhaven Nursing and Rehabilitation Center,169,1855 CHEYENNE DR,,CARROLLTON,TX,75010,Denton,1855 CHEYENNE DR CARROLLTON TX 75010,-96.88615360000001,33.0302494
Brookhollow Heights Transitional Care Center,170,1737 NORTH LOOP W,,HOUSTON,TX,77008,Harris,1737 NORTH LOOP W HOUSTON TX 77008,-95.4320875,29.8111852
Brownfield Regional Medical Center,172,705 E FELT ST,,BROWNFIELD,TX,79316,Terry,705 E FELT ST BROWNFIELD TX 79316,-102.2676269,33.1885263
Brownfield Rehabilitation and Care Center,173,510 S 1ST ST,,BROWNFIELD,TX,79316,Terry,510 S 1ST ST BROWNFIELD TX 79316,-102.2745537,33.1743611
Brownsville Nursing and Rehabilitation Center,174,320 LORENALY DR,,BROWNSVILLE,TX,78526,Cameron,320 LORENALY DR BROWNSVILLE TX 78526,-97.51042629999999,25.9727333
"Brownwood Nursing and Rehabilitation, LP",175,101 MILLER DR,,BROWNWOOD,TX,76801,Brown,101 MILLER DR BROWNWOOD TX 76801,-98.9954116,31.6777628
Brush Country Nursing And Rehabilitation,178,6500 BRUSH COUNTRY RD,,AUSTIN,TX,78749,Travis,6500 BRUSH COUNTRY RD AUSTIN TX 78749,-97.8417674,30.2248841
Buckner Villas,183,11110 TOM ADAMS DR,,AUSTIN,TX,78753,Travis,11110 TOM ADAMS DR AUSTIN TX 78753,-97.6714281,30.3721394
Buckner Westminister Place,184,2201 HORSESHOE LN,,LONGVIEW,TX,75605,Gregg,2201 HORSESHOE LN LONGVIEW TX 75605,-94.7500692,32.5358273
Buena Vida Nursing And Rehabilitation Center,185,5027 PECAN GROVE BLVD,,SAN ANTONIO,TX,78222,Bexar,5027 PECAN GROVE BLVD SAN ANTONIO TX 78222,-98.42052129999999,29.3754326
Buena Vida Nursing and Rehabilitation Center at Odessa,186,3800 ENGLEWOOD LN,,ODESSA,TX,79762,Ector,3800 ENGLEWOOD LN ODESSA TX 79762,-102.3468797,31.88908859999999
Burleson Saint Joseph Manor,188,1022 STATE HIGHWAY 21 E,,CALDWELL,TX,77836,Burleson,1022 STATE HIGHWAY 21 E CALDWELL TX 77836,-96.6846865,30.5423254
Calder Woods,190,7080 CALDER AVE,,BEAUMONT,TX,77706,Jefferson,7080 CALDER AVE BEAUMONT TX 77706,-94.1747345,30.074468
Cambridge Health and Rehabilitation Center,192,1106 GOLFVIEW DR,,RICHMOND,TX,77469,Fort Bend,1106 GOLFVIEW DR RICHMOND TX 77469,-95.7588255,29.5644963
Cameron Nursing and Rehabilitation Center,193,2202 N TRAVIS AVE,,CAMERON,TX,76520,Milam,2202 N TRAVIS AVE CAMERON TX 76520,-96.9736808,30.8684815
Canton Oaks,195,1901 S TRADE DAYS BLVD,,CANTON,TX,75103,Van Zandt,1901 S TRADE DAYS BLVD CANTON TX 75103,-95.8631649,32.5334565
Caprock Nursing and Rehabilitation Center,199,900 COLLEGE AVE,,BORGER,TX,79007,Hutchinson,900 COLLEGE AVE BORGER TX 79007,-101.4041978,35.6579194
Capstone Healthcare Estates At Veterans Memorial,200,1424 FALLBROOK DR,,HOUSTON,TX,77038,Harris,1424 FALLBROOK DR HOUSTON TX 77038,-95.44592279999999,29.92156199999999
Capstone Healthcare Estates on Orem,201,3730 W OREM DR,,HOUSTON,TX,77045,Harris,3730 W OREM DR HOUSTON TX 77045,-95.43380649999999,29.6293185
CARADAY WESTERN HILLS,202,512 DRAPER DR,,TEMPLE,TX,76504,Bell,512 DRAPER DR TEMPLE TX 76504,-97.36950859999999,31.1098759
Care Choice Of Boerne,204,200 RYAN ST,,BOERNE,TX,78006,Kendall,200 RYAN ST BOERNE TX 78006,-98.7304583,29.7967516
Care Inn of La Grange,206,457 N MAIN ST,,LA GRANGE,TX,78945,Fayette,457 N MAIN ST LA GRANGE TX 78945,-96.8817638,29.9074556
Care Nursing and Rehabilitation Center,209,200 COUNTY ROAD 616,,EARLY,TX,76802,Brown,200 COUNTY ROAD 616 EARLY TX 76802,-98.9681402,31.7473504
Carillon House,211,1717 NORFOLK AVE,,LUBBOCK,TX,79416,Lubbock,1717 NORFOLK AVE LUBBOCK TX 79416,-101.897727,33.5810489
Carrara,213,4501 TRADITION TRL,,PLANO,TX,75093,Collin,4501 TRADITION TRL PLANO TX 75093,-96.78444499999999,33.0139906
Carriage House Manor,214,210 PIPELINE RD,,SULPHUR SPRINGS,TX,75482,Hopkins,210 PIPELINE RD SULPHUR SPRINGS TX 75482,-95.5946913,33.1552965
"Carrizo Springs Nursing and Rehabilitation, LP",215,506 S 7TH ST,,CARRIZO SPRINGS,TX,78834,Dimmit,506 S 7TH ST CARRIZO SPRINGS TX 78834,-99.863553,28.518271
Carrollton Health And Rehabilitation Center,216,1618 KIRBY RD,,CARROLLTON,TX,75006,Dallas,1618 KIRBY RD CARROLLTON TX 75006,-96.8986951,32.9472342
Carthage Healthcare Center,218,701 S MARKET ST,,CARTHAGE,TX,75633,Panola,701 S MARKET ST CARTHAGE TX 75633,-94.340065,32.1464157
Castle Pines Health and Rehabilitation Center,220,2414 W FRANK AVE,,LUFKIN,TX,75904,Angelina,2414 W FRANK AVE LUFKIN TX 75904,-94.7650328,31.33323979999999
CC Young Retirement Community,225,4829 W LAWTHER DR,,DALLAS,TX,75214,Dallas,4829 W LAWTHER DR DALLAS TX 75214,-96.7302911,32.8527553
Cedar Creek Nursing and Rehabilitation Center,226,159 MONTAGUE AVE,,BANDERA,TX,78003,Bandera,159 MONTAGUE AVE BANDERA TX 78003,-99.082121,29.7324252
Cedar Hill Healthcare Center,229,230 S CLARK RD,,CEDAR HILL,TX,75104,Dallas,230 S CLARK RD CEDAR HILL TX 75104,-96.94150359999999,32.5865866
Cedar Lake Nursing Home,231,1611 W ROYALL BLVD,,MALAKOFF,TX,75148,Henderson,1611 W ROYALL BLVD MALAKOFF TX 75148,-96.0367363,32.1649605
Cedar Pointe Health and Wellness Suites,233,1301 COTTONWOOD CREEK TRL,,CEDAR PARK,TX,78613,,1301 COTTONWOOD CREEK TRL CEDAR PARK TX 78613,-97.8085774,30.5321097
Centerville Healthcare Center,234,103 TEAKWOOD,,CENTERVILLE,TX,75833,Leon,103 TEAKWOOD CENTERVILLE TX 75833,-95.97289239999999,31.2519863
Central Texas Nursing and Rehabilitation,237,1800 N BROADWAY ST,,BALLINGER,TX,76821,Runnels,1800 N BROADWAY ST BALLINGER TX 76821,-99.9637485,31.7496967
Chandler Nursing Center,239,300 CHERRY ST,,CHANDLER,TX,75758,Henderson,300 CHERRY ST CHANDLER TX 75758,-95.48240980000001,32.3139941
Chelsea Gardens,241,4422 RIVERSTONE BLVD,,MISSOURI CITY,TX,77459,Fort Bend,4422 RIVERSTONE BLVD MISSOURI CITY TX 77459,-95.57148719999999,29.5676594
Cherokee Rose Nursing and Rehabilitation,242,203 E GIBBS BLVD,,GLEN ROSE,TX,76043,Somervell,203 E GIBBS BLVD GLEN ROSE TX 76043,-97.74307069999999,32.2472404
Cherokee Trails Rehab and Healthcare,243,330 BAGLEY RD,,RUSK,TX,75785,Cherokee,330 BAGLEY RD RUSK TX 75785,-95.1305029,31.8125396
Cheyenne Medical Lodge,244,750 HIGHWAY 352,,MESQUITE,TX,75149,,750 HIGHWAY 352 MESQUITE TX 75149,-96.5722369,32.7721202
Chi Saint Joseph Health Burleson Hospital,245,1101 WOODSON DR,,CALDWELL,TX,77836,Burleson,1101 WOODSON DR CALDWELL TX 77836,-96.7164547,30.5202339
Chi Saint Joseph Health Grimes Hospital,246,210 S JUDSON ST,,NAVASOTA,TX,77868,Grimes,210 S JUDSON ST NAVASOTA TX 77868,-96.0776415,30.39258389999999
CHI Saint Joseph Skilled and Rehabilitation Center,247,2333 MANOR DR,,BRYAN,TX,77802,Brazos,2333 MANOR DR BRYAN TX 77802,-96.3506104,30.6604154
Childress Healthcare Center,249,1200 7TH ST NW,,CHILDRESS,TX,79201,Childress,1200 7TH ST NW CHILDRESS TX 79201,-100.206972,34.4351958
Childress Regional Medical Center,250,901 US HIGHWAY 83 N,,CHILDRESS,TX,79201,Childress,901 US HIGHWAY 83 N CHILDRESS TX 79201,-100.2268949,34.4392524
Chisolm Trail Nursing And Rehabilitation Center,252,107 N MEDINA ST,,LOCKHART,TX,78644,Caldwell,107 N MEDINA ST LOCKHART TX 78644,-97.68512319999999,29.8844358
Christian Care Center,253,1008 CITIZENS TRL,,TEXARKANA,TX,75501,Bowie,1008 CITIZENS TRL TEXARKANA TX 75501,-94.0766948,33.4269111
Christian Care Nursing And Rehabilitation,254,1000 WIGGINS PKWY,,MESQUITE,TX,75150,Dallas,1000 WIGGINS PKWY MESQUITE TX 75150,-96.6119635,32.8359461
CHRISTUS Jasper Memorial Hospital,255,1275 MARVIN HANCOCK DR,,JASPER,TX,75951,Jasper,1275 MARVIN HANCOCK DR JASPER TX 75951,-94.0095,30.9080711
Christus Mother Frances Hospital - Winnsboro,256,719 W COKE RD,,WINNSBORO,TX,75494,Wood,719 W COKE RD WINNSBORO TX 75494,-95.30730989999999,32.9457075
Christus Mother Frances Hospital Jacksonville,257,2026 S JACKSON ST,,JACKSONVILLE,TX,75766,Cherokee,2026 S JACKSON ST JACKSONVILLE TX 75766,-95.2477966,31.9384049
CHRISTUS Spohn Hospital Corpus Christi Memorial,262,2606 HOSPITAL BLVD,,CORPUS CHRISTI,TX,78405,Nueces,2606 HOSPITAL BLVD CORPUS CHRISTI TX 78405,-97.4161098,27.7800347
CHRISTUS Spohn Hospital Corpus Christi Shoreline,263,600 ELIZABETH ST,,CORPUS CHRISTI,TX,78404,Nueces,600 ELIZABETH ST CORPUS CHRISTI TX 78404,-97.3948435,27.778251
Cibolo Creek,267,1440 RIVER RD,,BOERNE,TX,78006,Kendall,1440 RIVER RD BOERNE TX 78006,-98.7093639,29.7900479
CIMARRON PARK NURSING AND REHABILITATION CENTER,268,7441 PASEO DEL NORTE,,EL PASO,TX,79911,,7441 PASEO DEL NORTE EL PASO TX 79911,-106.5671698,31.8866615
Cimarron Place Health and Rehabilitation Center,269,3801 CIMARRON BLVD,,CORPUS CHRISTI,TX,78414,Nueces,3801 CIMARRON BLVD CORPUS CHRISTI TX 78414,-97.3790911,27.6655941
Cisco Nursing And Rehabilitation,270,1404 FRONT ST,,CISCO,TX,76437,Eastland,1404 FRONT ST CISCO TX 76437,-98.9921316,32.376002
Citizens Medical Center Skilled Nursing Unit,271,2701 HOSPITAL DR,,VICTORIA,TX,77901,Victoria,2701 HOSPITAL DR VICTORIA TX 77901,-96.9779611,28.8126497
Cityview Nursing And Rehabilitation Center,272,5801 BRYANT IRVIN RD,,FORT WORTH,TX,76132,Tarrant,5801 BRYANT IRVIN RD FORT WORTH TX 76132,-97.4200958,32.6640982
Clairmont of Beaumont,273,1020 S 23RD ST,,BEAUMONT,TX,77707,Jefferson,1020 S 23RD ST BEAUMONT TX 77707,-94.14365989999999,30.0663595
Clarewood House,274,7400 CLAREWOOD DR,,HOUSTON,TX,77036,Harris,7400 CLAREWOOD DR HOUSTON TX 77036,-95.51482089999999,29.7109038
Clarksville Nursing Center,275,300 E BAKER ST,,CLARKSVILLE,TX,75426,Red River,300 E BAKER ST CLARKSVILLE TX 75426,-95.0461469,33.6027343
Clay County Memorial Hospital,276,310 W SOUTH ST,,HENRIETTA,TX,76365,Clay,310 W SOUTH ST HENRIETTA TX 76365,-98.1983382,33.8143203
Clear Brook Crossing Rehabilitation and Healthcare Center,278,10800 FLORA MAE MEADOWS RD,,HOUSTON,TX,77089,Harris,10800 FLORA MAE MEADOWS RD HOUSTON TX 77089,-95.2137003,29.58213899999999
Cleveland Health Care Center,280,903 E HOUSTON ST,,CLEVELAND,TX,77327,Liberty,903 E HOUSTON ST CLEVELAND TX 77327,-95.0788614,30.3420386
"Clifton Nursing and Rehabilitation Center, LP",281,1000 FM 3220,,CLIFTON,TX,76634,Bosque,1000 FM 3220 CLIFTON TX 76634,-97.58744999999999,31.79157
Clyde Nursing Center,282,806 STEPHENS ST,,CLYDE,TX,79510,Callahan,806 STEPHENS ST CLYDE TX 79510,-99.49023539999999,32.3953263
Clyde W Cosper Texas State Veterans Home,283,1300 SEVEN OAKS RD,,BONHAM,TX,75418,Fannin,1300 SEVEN OAKS RD BONHAM TX 75418,-96.16620449999999,33.5864339
Coastal Palms Nursing And Rehabilitation,284,221 CEDAR DR,,PORTLAND,TX,78374,San Patricio,221 CEDAR DR PORTLAND TX 78374,-97.3129697,27.8939575
Cogdell Memorial Hospital,285,1700 COGDELL BLVD,,SNYDER,TX,79549,Scurry,1700 COGDELL BLVD SNYDER TX 79549,-100.9170474,32.6876941
Coleman County Medical Center,288,310 S PECOS ST,,COLEMAN,TX,76834,Coleman,310 S PECOS ST COLEMAN TX 76834,-99.4256044,31.8284628
Coleman Healthcare Center,289,2713 S COMMERCIAL AVE,,COLEMAN,TX,76834,Coleman,2713 S COMMERCIAL AVE COLEMAN TX 76834,-99.42260929999999,31.8065399
College Park Rehabilitation and Care Center,290,1715 MARTIN DR,,WEATHERFORD,TX,76086,Parker,1715 MARTIN DR WEATHERFORD TX 76086,-97.7861112,32.737764
College Street Nursing Center,291,4150 COLLEGE ST,,BEAUMONT,TX,77707,Jefferson,4150 COLLEGE ST BEAUMONT TX 77707,-94.1381821,30.0692224
Collingsworth General Hospital,292,1013 15TH ST,,WELLINGTON,TX,79095,Collingsworth,1013 15TH ST WELLINGTON TX 79095,-100.21218,34.8486471
Collinwood Nursing And Rehabilitation,293,3100 S RIGSBEE DR,,PLANO,TX,75074,Collin,3100 S RIGSBEE DR PLANO TX 75074,-96.6732511,33.0144919
Colonial Belle Nursing Home,294,106 N BARON ST,,BELLVILLE,TX,77418,Austin,106 N BARON ST BELLVILLE TX 77418,-96.2633434,29.9541697
Colonial Belle Nursing Home Sealy,295,1401 EAGLE LAKE RD,,SEALY,TX,77474,Austin,1401 EAGLE LAKE RD SEALY TX 77474,-96.1695607,29.7727059
Colonial Care Center,296,507 WEST AVE,,SCHULENBURG,TX,78956,Fayette,507 WEST AVE SCHULENBURG TX 78956,-96.91139629999999,29.6822963
Colonial Manor Advanced Rehab and Healthcare,298,1100 W MINNESOTA RD,,PHARR,TX,78577,Hidalgo,1100 W MINNESOTA RD PHARR TX 78577,-98.1940892,26.2436117
Colonial Manor Nursing And Rehabilitation Center,299,821 US HWY 81,,NEW BRAUNFELS,TX,78130,Comal,821 US HWY 81 NEW BRAUNFELS TX 78130,-98.1237433,29.6911115
Colonial Manor Nursing Center,300,2035 GRANBURY ST,,CLEBURNE,TX,76033,Johnson,2035 GRANBURY ST CLEBURNE TX 76033,-97.40632629999999,32.3654831
Colonial Nursing and Rehabilitation Center,301,508 PIERCE ST,,LINDALE,TX,75771,Smith,508 PIERCE ST LINDALE TX 75771,-95.4035268,32.511009
Colonial Pines Healthcare Center,306,1203 FARM RD 1277,,SAN AUGUSTINE,TX,75972,San Augustine,1203 FARM RD 1277 SAN AUGUSTINE TX 75972,-94.13258549999999,31.526038
Columbus Community Hospital,309,110 SHULT DR,,COLUMBUS,TX,78934,Colorado,110 SHULT DR COLUMBUS TX 78934,-96.54339770000001,29.6945319
Columbus Oaks Healthcare Community,311,300 NORTH ST,,COLUMBUS,TX,78934,Colorado,300 NORTH ST COLUMBUS TX 78934,-96.5385625,29.716396
Comanche County Medical Center,312,10201 HIGHWAY 16,,COMANCHE,TX,76442,Comanche,10201 HIGHWAY 16 COMANCHE TX 76442,-98.7058385,31.9235874
Community Care Center,313,1150 E LOOP 304,,CROCKETT,TX,75835,Houston,1150 E LOOP 304 CROCKETT TX 75835,-95.4376197,31.3215576
Community Care Center Of Hondo,315,2001 AVENUE E,,HONDO,TX,78861,Medina,2001 AVENUE E HONDO TX 78861,-99.1330334,29.346692
Concho County Hospital,317,614 EAKER ST,,EDEN,TX,76837,Concho,614 EAKER ST EDEN TX 76837,-99.84814259999999,31.2213223
Concho Health and Rehabilitation Center,318,613 EAKER ST,,EDEN,TX,76837,Concho,613 EAKER ST EDEN TX 76837,-99.84791229999999,31.220583
Conroe Healthcare Center,320,2019 N FRAZIER ST,,CONROE,TX,77301,Montgomery,2019 N FRAZIER ST CONROE TX 77301,-95.46782859999999,30.3334845
Continuing Care At Highland Springs,321,7910 FRANKFORD RD,,DALLAS,TX,75252,Dallas,7910 FRANKFORD RD DALLAS TX 75252,-96.7633233,32.9952368
Coon Memorial Hospital,324,1411 DENVER AVE,,DALHART,TX,79022,Dallam,1411 DENVER AVE DALHART TX 79022,-102.5209785,36.0516278
Copperas Cove Nursing and Rehabilitation,328,607 W AVENUE B,,COPPERAS COVE,TX,76522,Coryell,607 W AVENUE B COPPERAS COVE TX 76522,-97.9081378,31.12716709999999
Copperas Hollow Nursing and Rehabilitation Center,329,345 COUNTRY CLUB DR,,CALDWELL,TX,77836,Burleson,345 COUNTRY CLUB DR CALDWELL TX 77836,-96.7111434,30.5431976
Copperfield Healthcare and Rehabilitation,330,7107 QUEENSTON BLVD,,HOUSTON,TX,77095,Harris,7107 QUEENSTON BLVD HOUSTON TX 77095,-95.6688853,29.8804747
Corinth Rehabilitation Suites on the Parkway,331,3511 CORINTH PKWY,,DENTON,TX,76208,Denton,3511 CORINTH PKWY DENTON TX 76208,-97.0554739,33.1539058
Cornerstone Gardens Healthcare and Rehabilitation,332,763 MARLANDWOOD RD,,TEMPLE,TX,76502,Bell,763 MARLANDWOOD RD TEMPLE TX 76502,-97.36391590000001,31.0614641
Cornerstone Retirement Community,333,4100 MOORES LN,,TEXARKANA,TX,75503,Bowie,4100 MOORES LN TEXARKANA TX 75503,-94.0954747,33.4741414
Coronado at Stone Oak,334,19638 STONE OAK PKWY,,SAN ANTONIO,TX,78258,Bexar,19638 STONE OAK PKWY SAN ANTONIO TX 78258,-98.4943224,29.63817899999999
Coronado Healthcare Center,335,1504 W KENTUCKY AVE,,PAMPA,TX,79065,Gray,1504 W KENTUCKY AVE PAMPA TX 79065,-100.9803912,35.5482991
Coronado Nursing And Rehab,336,1751 N 15TH ST,,ABILENE,TX,79603,Taylor,1751 N 15TH ST ABILENE TX 79603,-99.74186279999999,32.46603890000001
Corpus Christi Nursing and Rehabilitation Center,341,2735 AIRLINE RD,,CORPUS CHRISTI,TX,78414,Nueces,2735 AIRLINE RD CORPUS CHRISTI TX 78414,-97.3657097,27.6785639
Corrigan LTC Nursing and Rehabilitation Center,342,300 HYDE ST,,CORRIGAN,TX,75939,Polk,300 HYDE ST CORRIGAN TX 75939,-94.82382199999999,31.0006237
Coryell Memorial Healthcare System,343,1507 W MAIN ST,,GATESVILLE,TX,76528,Coryell,1507 W MAIN ST GATESVILLE TX 76528,-97.7803843,31.4355055
Cottonwood Creek Healthcare Community,344,1111 W SHORE DR,,RICHARDSON,TX,75080,Dallas,1111 W SHORE DR RICHARDSON TX 75080,-96.7492738,32.96428840000001
"Cottonwood Nursing and Rehabilitation, LP",346,2224 N CARROLL BLVD,,DENTON,TX,76201,Denton,2224 N CARROLL BLVD DENTON TX 76201,-97.1365946,33.2350317
Country Care Manor,347,2736 FARM RD 775,,LA VERNIA,TX,78121,Wilson,2736 FARM RD 775 LA VERNIA TX 78121,-98.1308917,29.3484427
"Country Club Nursing and Rehabilitation, LP",348,9 MEDICAL DR,,AMARILLO,TX,79106,Potter,9 MEDICAL DR AMARILLO TX 79106,-101.8973261,35.2077813
Country Meadows Nursing and Rehabilitation Center,350,3301 W PARK ROW BLVD,,CORSICANA,TX,75110,Navarro,3301 W PARK ROW BLVD CORSICANA TX 75110,-96.49689509999999,32.0715001
Country View Nursing And Rehabilitation,353,1900 N FRANCES ST,,TERRELL,TX,75160,Kaufman,1900 N FRANCES ST TERRELL TX 75160,-96.2640656,32.7565451
Country Village Care,354,721 W MULBERRY ST,,ANGLETON,TX,77515,Brazoria,721 W MULBERRY ST ANGLETON TX 77515,-95.44403969999999,29.1627647
"Countryside Nursing and Rehabilitation, LP",355,1700 N WASHINGTON ST,,PILOT POINT,TX,76258,Denton,1700 N WASHINGTON ST PILOT POINT TX 76258,-96.94334909999999,33.4129905
Courtyard Nursing And Rehabilitation Center,357,7499 STANWICK DR,,HOUSTON,TX,77087,Harris,7499 STANWICK DR HOUSTON TX 77087,-95.2919154,29.676796
Covenant Hospital Plainview,361,2601 DIMMITT RD,,PLAINVIEW,TX,79072,Hale,2601 DIMMITT RD PLAINVIEW TX 79072,-101.7326554,34.2065762
Crane Memorial Hospital,363,1310 S ALFORD ST,,CRANE,TX,79731,Crane,1310 S ALFORD ST CRANE TX 79731,-102.349876,31.3897018
Creekside Terrace Rehabilitation,365,1555 POWELL AVE,,BELTON,TX,76513,Bell,1555 POWELL AVE BELTON TX 76513,-97.4862706,31.0535719
Creekside Village Healthcare,366,914 BRAZOSPORT BLVD N,,RICHWOOD,TX,77531,Brazoria,914 BRAZOSPORT BLVD N RICHWOOD TX 77531,-95.399068,29.0336057
Crestview Court,367,224 W PLEASANT RUN RD,,CEDAR HILL,TX,75104,Dallas,224 W PLEASANT RUN RD CEDAR HILL TX 75104,-96.9474596,32.6038383
"Crestview Healthcare Residence, Ltd",368,1400 LAKE SHORE DR,,WACO,TX,76708,McLennan,1400 LAKE SHORE DR WACO TX 76708,-97.1766268,31.5931967
Crestview Manor Nursing and Rehabilitation Center,369,1103 MARY JANE ST,,BELTON,TX,76513,Bell,1103 MARY JANE ST BELTON TX 76513,-97.4787527,31.0495322
Crestview Retirement Community,370,2505 E VILLA MARIA RD,,BRYAN,TX,77802,Brazos,2505 E VILLA MARIA RD BRYAN TX 77802,-96.34751,30.6598427
Crestwood Health and Rehab,371,1448 HOUSTON ST,,WILLS POINT,TX,75169,Van Zandt,1448 HOUSTON ST WILLS POINT TX 75169,-95.99331230000001,32.6993509
CRIMSON HEIGHTS HEALTH and WELLNESS,372,19279 MCKAY DR,,HUMBLE,TX,77338,,19279 MCKAY DR HUMBLE TX 77338,-95.2776516,29.9975359
Crosbyton Nursing and Rehabilitation Center,376,222 N FARMER ST,,CROSBYTON,TX,79322,Crosby,222 N FARMER ST CROSBYTON TX 79322,-101.2440294,33.6622505
Cross Timbers Rehabilitation and Healthcare Center,378,3315 CROSS TIMBERS RD,,FLOWER MOUND,TX,75028,Denton,3315 CROSS TIMBERS RD FLOWER MOUND TX 75028,-97.0812322,33.0401078
Crossroads Nursing And Rehabilitation,380,611 ROSE MARIE BLVD,,HEARNE,TX,77859,Robertson,611 ROSE MARIE BLVD HEARNE TX 77859,-96.593395,30.8651425
Crowell Nursing Center,381,200 S B AVE,,CROWELL,TX,79227,Foard,200 S B AVE CROWELL TX 79227,-99.7272567,33.98143
Crown Point Health Suites,382,6640 IOLA AVE,,LUBBOCK,TX,79424,Lubbock,6640 IOLA AVE LUBBOCK TX 79424,-101.9492947,33.5322271
Crystal Creek Preston Hollow,383,11409 N CENTRAL EXPY,,DALLAS,TX,75243,Dallas,11409 N CENTRAL EXPY DALLAS TX 75243,-96.77002159999999,32.9047127
Cuero Partners,384,1310 E BROADWAY ST,,CUERO,TX,77954,DeWitt,1310 E BROADWAY ST CUERO TX 77954,-97.26777249999999,29.08837299999999
Cypress Creek Rehabilitation and Healthcare Center,386,13600 BIRDCALL LN,,CYPRESS,TX,77429,,13600 BIRDCALL LN CYPRESS TX 77429,-95.62891379999999,29.9519122
Cypress Woods Care Center,389,135 1 2 E HOSPITAL DR,,ANGLETON,TX,77515,Brazoria,135 1 2 E HOSPITAL DR ANGLETON TX 77515,-95.4038131,29.1856271
Cypresswood Health and Rehabilitation Center,390,10851 CRESCENT MOON DR,,HOUSTON,TX,77064,Harris,10851 CRESCENT MOON DR HOUSTON TX 77064,-95.5817076,29.9259391
Deer Creek of Wimberley Nursing Center,394,555 FM 3237,,WIMBERLEY,TX,78676,Hays,555 FM 3237 WIMBERLEY TX 78676,-98.08471379999999,29.9995893
Deerbrook Skilled Nursing And Rehabilitation,395,9250 FM 1960 RD W,,HUMBLE,TX,77338,Harris,9250 FM 1960 RD W HUMBLE TX 77338,-95.13812809999999,30.0107887
"Deerings Nursing and Rehabilitation, LP",396,1020 W COUNTY RD N,,ODESSA,TX,79763,Ector,1020 W COUNTY RD N ODESSA TX 79763,-102.3896845,31.845067
Del Rio Nursing and Rehabilitation Center,397,301 W MARTIN ST,,DEL RIO,TX,78840,Val Verde,301 W MARTIN ST DEL RIO TX 78840,-100.9040306,29.3597868
"DeLeon Nursing and Rehabilitation, LP",398,809 E NAVARRO AVE,,DE LEON,TX,76444,Comanche,809 E NAVARRO AVE DE LEON TX 76444,-98.5272605,32.1162868
"Denison Nursing and Rehabilitation, LP",399,601 E US HIGHWAY 69,,DENISON,TX,75021,Grayson,601 E US HIGHWAY 69 DENISON TX 75021,-96.527889,33.7388059
Denton Rehabilitation and Nursing Center,400,2229 N CARROLL BLVD,,DENTON,TX,76201,Denton,2229 N CARROLL BLVD DENTON TX 76201,-97.1378727,33.2358715
Desoto Nursing And Rehabilitation,403,1101 N HAMPTON RD,,DESOTO,TX,75115,Dallas,1101 N HAMPTON RD DESOTO TX 75115,-96.8578301,32.608559
Devine Health and Rehabilitation,406,104 ENTERPRISE AVE,,DEVINE,TX,78016,Medina,104 ENTERPRISE AVE DEVINE TX 78016,-98.8918135,29.1527949
Dfw Nursing And Rehabilitation,407,900 W LEUDA ST,,FORT WORTH,TX,76104,Tarrant,900 W LEUDA ST FORT WORTH TX 76104,-97.33473579999999,32.7366974
Dimmit Regional Hospital,408,704 HOSPITAL DR,,CARRIZO SPRINGS,TX,78834,Dimmit,704 HOSPITAL DR CARRIZO SPRINGS TX 78834,-99.86333490000001,28.5193252
Diversicare of Lake Highlands,409,9009 WHITE ROCK TRL,,DALLAS,TX,75238,Dallas,9009 WHITE ROCK TRL DALLAS TX 75238,-96.7304178,32.8706761
Diversicare of Luling,410,208 MAPLE ST,,LULING,TX,78648,Caldwell,208 MAPLE ST LULING TX 78648,-97.6325152,29.6724371
Dogwood Trails Manor,415,647 US HIGHWAY 190 W,,WOODVILLE,TX,75979,Tyler,647 US HIGHWAY 190 W WOODVILLE TX 75979,-94.40103049999999,30.7800978
Dovehill Healthcare Center and Villas,416,1315 E STATE HIGHWAY 22,,HAMILTON,TX,76531,Hamilton,1315 E STATE HIGHWAY 22 HAMILTON TX 76531,-98.0915813,31.7056579
Downtown Health and Rehabilitation Center,417,424 S ADAMS ST,,FORT WORTH,TX,76104,Tarrant,424 S ADAMS ST FORT WORTH TX 76104,-97.3367609,32.7405268
Duncanville Healthcare and Rehabilitation Center,418,419 S COCKRELL HILL RD,,DUNCANVILLE,TX,75116,Dallas,419 S COCKRELL HILL RD DUNCANVILLE TX 75116,-96.89198909999999,32.6489465
Eagle Lake Nursing And Rehabilitation,419,535 S AUSTIN RD,,EAGLE LAKE,TX,77434,Colorado,535 S AUSTIN RD EAGLE LAKE TX 77434,-96.34608080000001,29.5890258
Eagle Pass Nursing and Rehabilitation,421,2550 ZACATECAS DR,,EAGLE PASS,TX,78852,Maverick,2550 ZACATECAS DR EAGLE PASS TX 78852,-100.4785614,28.7156702
Eagles Trace,422,14703 EAGLE VISTA DR,,HOUSTON,TX,77077,Harris,14703 EAGLE VISTA DR HOUSTON TX 77077,-95.6425089,29.7621753
Eastland Memorial Hospital,423,304 S DAUGHERTY AVE,,EASTLAND,TX,76448,Eastland,304 S DAUGHERTY AVE EASTLAND TX 76448,-98.8210411,32.4000264
Eastland Nursing and Rehabilitation,424,700 S OSTROM AVE,,EASTLAND,TX,76448,Eastland,700 S OSTROM AVE EASTLAND TX 76448,-98.8287385,32.3949639
Ebony Lake Nursing and Rehabilitation Center,426,1001 CENTRAL BLVD,,BROWNSVILLE,TX,78520,Cameron,1001 CENTRAL BLVD BROWNSVILLE TX 78520,-97.5129219,25.9205815
"Eden Home, Inc",427,631 LAKEVIEW BLVD,,NEW BRAUNFELS,TX,78130,Comal,631 LAKEVIEW BLVD NEW BRAUNFELS TX 78130,-98.12873549999999,29.7246512
Edgewater Care Center,429,1213 WATER ST,,KERRVILLE,TX,78028,Kerr,1213 WATER ST KERRVILLE TX 78028,-99.1368813,30.04070299999999
Edgewood Manor Nursing Home,430,4925 ELIZABETH ST,,TEXARKANA,TX,75503,Bowie,4925 ELIZABETH ST TEXARKANA TX 75503,-94.0502251,33.4674901
Edgewood Rehabilitation and Care Center,431,1101 WINDBELL ST,,MESQUITE,TX,75149,Dallas,1101 WINDBELL ST MESQUITE TX 75149,-96.62143669999999,32.7801991
Edinburg Nursing and Rehabilitation Center,432,5215 S SUGAR RD,,EDINBURG,TX,78539,Hidalgo,5215 S SUGAR RD EDINBURG TX 78539,-98.18712210000001,26.2532414
El Campo Memorial Hospital,435,303 SANDY CORNER RD,,EL CAMPO,TX,77437,Wharton,303 SANDY CORNER RD EL CAMPO TX 77437,-96.2915027,29.2193051
El Paso Health and Rehabilitation Center,436,11525 VISTA DEL SOL DR,,EL PASO,TX,79936,El Paso,11525 VISTA DEL SOL DR EL PASO TX 79936,-106.299751,31.7522299
Electra Healthcare Center,437,511 S BAILEY ST,,ELECTRA,TX,76360,Wichita,511 S BAILEY ST ELECTRA TX 76360,-98.92571199999999,34.0276941
Electra Memorial Hospital,438,1207 S BAILEY ST,,ELECTRA,TX,76360,Wichita,1207 S BAILEY ST ELECTRA TX 76360,-98.924405,34.0190559
Elgin Nursing and Rehabilitation Center,439,1373 N AVENUE C,,ELGIN,TX,78621,Bastrop,1373 N AVENUE C ELGIN TX 78621,-97.38871720000002,30.358802
Elkhart Oaks Care Center,441,214 JONES RD,,ELKHART,TX,75839,Anderson,214 JONES RD ELKHART TX 75839,-95.5787862,31.618766
Emerald Hills Rehabilitation and Healthcare Center,443,5600 DAVIS BLVD,,NORTH RICHLAND HILLS,TX,76180,Tarrant,5600 DAVIS BLVD NORTH RICHLAND HILLS TX 76180,-97.2124554,32.8496053
Ennis Care Center,445,1200 S HALL ST,,ENNIS,TX,75119,Ellis,1200 S HALL ST ENNIS TX 75119,-96.6309113,32.312547
Epic Nursing And Rehabilitation,447,3210 W STATE HIGHWAY 22,,CORSICANA,TX,75110,Navarro,3210 W STATE HIGHWAY 22 CORSICANA TX 75110,-96.5034767,32.0857466
Estates Healthcare and Rehabilitation Center,448,201 SYCAMORE SCHOOL RD,,FORT WORTH,TX,76134,Tarrant,201 SYCAMORE SCHOOL RD FORT WORTH TX 76134,-97.32524389999999,32.6345958
Estrella Oaks Rehabilitation And Care Center,450,4011 WILLIAMS DR,,GEORGETOWN,TX,78628,Williamson,4011 WILLIAMS DR GEORGETOWN TX 78628,-97.7033592,30.6757995
Evergreen Healthcare Center,451,406 E 7TH ST,,BURKBURNETT,TX,76354,Wichita,406 E 7TH ST BURKBURNETT TX 76354,-98.57197289999999,34.1018929
Fairfield Nursing and Rehabilitation Center,453,420 MOODY ST,,FAIRFIELD,TX,75840,Freestone,420 MOODY ST FAIRFIELD TX 75840,-96.16558309999999,31.732245
"Fairview Healthcare Residence, Ltd",454,601 E REUNION ST,,FAIRFIELD,TX,75840,Freestone,601 E REUNION ST FAIRFIELD TX 75840,-96.150296,31.72229329999999
Faith Community Hospital,456,215 CHISHOLM TRL,,JACKSBORO,TX,76458,Jack,215 CHISHOLM TRL JACKSBORO TX 76458,-98.16687639999999,33.2308754
Faith Memorial Nursing Home,458,811 GARNER RD,,PASADENA,TX,77502,Harris,811 GARNER RD PASADENA TX 77502,-95.2020812,29.6841363
Falcon Lake Nursing Home,459,200 CARLA ST,,ZAPATA,TX,78076,Zapata,200 CARLA ST ZAPATA TX 78076,-99.25798800000001,26.9010809
Falcon Ridge Rehabilitation,460,149 KLATTENHOFF LN,,HUTTO,TX,78634,Williamson,149 KLATTENHOFF LN HUTTO TX 78634,-97.57910919999999,30.5116125
Falfurrias Nursing And Rehabilitation,461,1301 S TERRELL ST,,FALFURRIAS,TX,78355,Brooks,1301 S TERRELL ST FALFURRIAS TX 78355,-98.1487495,27.2147571
Farmersville Health And Rehabilitation,466,205 BEECH ST,,FARMERSVILLE,TX,75442,Collin,205 BEECH ST FARMERSVILLE TX 75442,-96.3576654,33.1582693
Farwell Care and Rehabilitation Center,467,305 5TH ST,,FARWELL,TX,79325,Parmer,305 5TH ST FARWELL TX 79325,-103.0370442,34.38564
Fireside Lodge Healthcare Center,468,4800 WHITE SETTLEMENT RD,,FORT WORTH,TX,76114,Tarrant,4800 WHITE SETTLEMENT RD FORT WORTH TX 76114,-97.3932774,32.7604922
Flatonia Oak Manor Rehabilitation and Nursing Center,471,624 N CONVERSE ST,,FLATONIA,TX,78941,Fayette,624 N CONVERSE ST FLATONIA TX 78941,-97.1051112,29.69402419999999
Floresville Nursing and Rehabilitation Center,472,1811 6TH ST,,FLORESVILLE,TX,78114,Wilson,1811 6TH ST FLORESVILLE TX 78114,-98.1502859,29.1310704
Focus Care at Linden,475,1201 W HOUSTON ST,,LINDEN,TX,75563,Cass,1201 W HOUSTON ST LINDEN TX 75563,-94.3774318,33.0105197
Focus Care Gilmer,476,623 STATE HIGHWAY 155 N,,GILMER,TX,75644,Upshur,623 STATE HIGHWAY 155 N GILMER TX 75644,-94.938217,32.7379374
Focused Care At Allenbrook,477,4109 ALLENBROOK DR,,BAYTOWN,TX,77521,Harris,4109 ALLENBROOK DR BAYTOWN TX 77521,-94.9726653,29.7670797
Focused Care at Burnet Bay,479,3921 N MAIN ST,,BAYTOWN,TX,77521,Harris,3921 N MAIN ST BAYTOWN TX 77521,-94.96484,29.7654261
Focused Care at Cedar Bayou,480,2000 W BAKER RD,,BAYTOWN,TX,77521,Harris,2000 W BAKER RD BAYTOWN TX 77521,-94.9829071,29.770298
Focused Care At Clarksville,481,2407 W MAIN ST,,CLARKSVILLE,TX,75426,Red River,2407 W MAIN ST CLARKSVILLE TX 75426,-95.0670859,33.6102936
Focused Care at Corpus,482,801 CANTWELL LN,,CORPUS CHRISTI,TX,78408,Nueces,801 CANTWELL LN CORPUS CHRISTI TX 78408,-97.44847,27.800314
Focused Care At Fort Stockton,483,501 N SYCAMORE ST,,FORT STOCKTON,TX,79735,Pecos,501 N SYCAMORE ST FORT STOCKTON TX 79735,-102.9095328,30.8899407
Focused Care At Lamesa,486,1201 N 15TH ST,,LAMESA,TX,79331,Dawson,1201 N 15TH ST LAMESA TX 79331,-101.9662628,32.7438888
Focused Care At Midland,487,2000 N MAIN ST,,MIDLAND,TX,79705,Midland,2000 N MAIN ST MIDLAND TX 79705,-102.0770501,32.0183178
Focused Care at Mount Pleasant,488,1606 MEMORIAL AVE,,MOUNT PLEASANT,TX,75455,Titus,1606 MEMORIAL AVE MOUNT PLEASANT TX 75455,-94.9741367,33.1717302
Focused Care At Odessa,489,2443 W 16TH ST,,ODESSA,TX,79763,Ector,2443 W 16TH ST ODESSA TX 79763,-102.4020166,31.8481207
Focused Care at Orange,490,4201 FM 105,,ORANGE,TX,77630,Orange,4201 FM 105 ORANGE TX 77630,-93.7864532,30.0819507
Focused Care at Pasadena,491,3434 WATTERS RD,,PASADENA,TX,77504,Harris,3434 WATTERS RD PASADENA TX 77504,-95.1805715,29.660695
Focused Care At Pecos,492,1819 S MEMORIAL DR,,PECOS,TX,79772,Reeves,1819 S MEMORIAL DR PECOS TX 79772,-103.5005776,31.4049671
Focused Care at Sherman,493,817 W CENTER ST,,SHERMAN,TX,75092,Grayson,817 W CENTER ST SHERMAN TX 75092,-96.61680419999999,33.6288202
Focused Care at Summer Place,494,2485 S MAJOR DR,,BEAUMONT,TX,77707,Jefferson,2485 S MAJOR DR BEAUMONT TX 77707,-94.1887745,30.0512959
Focused Care At Waxahachie,495,1413 W MAIN ST,,WAXAHACHIE,TX,75165,Ellis,1413 W MAIN ST WAXAHACHIE TX 75165,-96.8636221,32.3972648
Focused Care at Webster,496,17231 MILL FOREST RD,,WEBSTER,TX,77598,Harris,17231 MILL FOREST RD WEBSTER TX 77598,-95.12278669999999,29.5460999
Focused Care at Westwood,497,8702 S COURSE DR,,HOUSTON,TX,77099,Harris,8702 S COURSE DR HOUSTON TX 77099,-95.56345739999999,29.6811765
Focused Care Of Center,498,501 TIMPSON ST,,CENTER,TX,75935,Shelby,501 TIMPSON ST CENTER TX 75935,-94.1898589,31.7999133
Fort Bend Healthcare Center,501,3010 BAMORE RD,,ROSENBERG,TX,77471,Fort Bend,3010 BAMORE RD ROSENBERG TX 77471,-95.81960280000001,29.5368418
Fort Worth Transitional Care Center,505,850 12TH AVE,,FORT WORTH,TX,76104,Tarrant,850 12TH AVE FORT WORTH TX 76104,-97.34884190000001,32.7358718
Fort Worth Wellness And Rehabilitation,506,2129 SKYLINE DR,,FORT WORTH,TX,76114,Tarrant,2129 SKYLINE DR FORT WORTH TX 76114,-97.39902029999999,32.7933002
"Fortress Health and Rehab of Rock Prairie, LLC",507,1105 ROCK PRAIRIE RD,,COLLEGE STATION,TX,77845,Brazos,1105 ROCK PRAIRIE RD COLLEGE STATION TX 77845,-96.29959919999999,30.5796432
Forum Parkway Health and Rehabilitation,508,2112 FORUM PKWY,,BEDFORD,TX,76021,Tarrant,2112 FORUM PKWY BEDFORD TX 76021,-97.11196489999999,32.841684
Founders Plaza Nursing and Rehabilitation,509,721 S HIGHWAY 78,,WYLIE,TX,75098,Dallas,721 S HIGHWAY 78 WYLIE TX 75098,-96.546399,33.0040399
FOX HOLLOW POST ACUTE,510,310 AMERICA DR,,BROWNSVILLE,TX,78526,,310 AMERICA DR BROWNSVILLE TX 78526,-97.4849809,25.955078
Frank M Tejeda Texas State Veterans Home,511,200 VETERANS DR,,FLORESVILLE,TX,78114,Wilson,200 VETERANS DR FLORESVILLE TX 78114,-98.14623139999999,29.1300088
Franklin Heights Nursing and Rehabilitation Center,512,223 S RESLER DR,,EL PASO,TX,79912,El Paso,223 S RESLER DR EL PASO TX 79912,-106.5521923,31.832666
Franklin Nursing Home,513,700 N HEARNE ST,,FRANKLIN,TX,77856,Robertson,700 N HEARNE ST FRANKLIN TX 77856,-96.49178260000001,31.0293278
Fredericksburg Nursing And Rehabilitation,515,1117 S ADAMS ST,,FREDERICKSBURG,TX,78624,Gillespie,1117 S ADAMS ST FREDERICKSBURG TX 78624,-98.8781084,30.2593912
Friendship Haven Healthcare and Rehabilitation Center,516,1500 SUNSET DR,,FRIENDSWOOD,TX,77546,Galveston,1500 SUNSET DR FRIENDSWOOD TX 77546,-95.1929914,29.506868
Frio Regional Hospital,518,200 S INTERSTATE 35,,PEARSALL,TX,78061,Frio,200 S INTERSTATE 35 PEARSALL TX 78061,-99.1171511,28.8966611
Gainesville Health and Rehabilitation Center,519,1900 ONEAL ST,,GAINESVILLE,TX,76240,Cooke,1900 ONEAL ST GAINESVILLE TX 76240,-97.1226044,33.6354739
Galleria Residence and Rehabilitation Center,520,2808 STONEY BROOK DR,,HOUSTON,TX,77063,Harris,2808 STONEY BROOK DR HOUSTON TX 77063,-95.5054153,29.7363507
Ganado Nursing And Rehabilitation Center,521,107 E ROGERS ST,,GANADO,TX,77962,Jackson,107 E ROGERS ST GANADO TX 77962,-96.51157119999999,29.0388281
Garden Terrace At Fort Worth,522,7500 OAKMONT BLVD,,FORT WORTH,TX,76132,Tarrant,7500 OAKMONT BLVD FORT WORTH TX 76132,-97.4235175,32.6635884
Garden Terrace At Houston,523,7887 CAMBRIDGE ST,,HOUSTON,TX,77054,Harris,7887 CAMBRIDGE ST HOUSTON TX 77054,-95.391951,29.6915445
Garden Terrace Healthcare Center,524,1224 CORVADURA ST,,GRAHAM,TX,76450,Young,1224 CORVADURA ST GRAHAM TX 76450,-98.57785349999999,33.0884754
Garden Villa Nursing Home,525,106 DEL NORTE DR,,EL CAMPO,TX,77437,Wharton,106 DEL NORTE DR EL CAMPO TX 77437,-96.27999109999999,29.2078151
Gardendale Rehabilitation and Nursing Center,526,1521 E RUSK ST,,JACKSONVILLE,TX,75766,Cherokee,1521 E RUSK ST JACKSONVILLE TX 75766,-95.24587919999999,31.9644067
Garland Nursing and Rehabilitation,527,321 N SHILOH RD,,GARLAND,TX,75042,Dallas,321 N SHILOH RD GARLAND TX 75042,-96.66777959999999,32.9147657
Garnet Hill Rehabilitation and Skilled Care,528,1420 MCCREARY RD,,WYLIE,TX,75098,Dallas,1420 MCCREARY RD WYLIE TX 75098,-96.593939,33.0358708
Garrison Geriatric Education And Care Center,529,3710 4TH ST,,LUBBOCK,TX,79415,Lubbock,3710 4TH ST LUBBOCK TX 79415,-101.893759,33.5933301
Garrison Nursing Home and Rehabilitation Center,530,333 N FM 95,,GARRISON,TX,75946,Nacogdoches,333 N FM 95 GARRISON TX 75946,-94.4994462,31.8270956
Gazebo Terrace Convalescent Center,532,1303 HIGHWAY 290 E,,BRENHAM,TX,77833,Washington,1303 HIGHWAY 290 E BRENHAM TX 77833,-96.3761732,30.1433804
Georgia Manor Nursing Home,536,2611 SW 46TH AVE,,AMARILLO,TX,79110,Randall,2611 SW 46TH AVE AMARILLO TX 79110,-101.8659852,35.1611897
Giddings Residence and Rehabilitation Center,538,1181 N WILLIAMSON ST,,GIDDINGS,TX,78942,Lee,1181 N WILLIAMSON ST GIDDINGS TX 78942,-96.9374355,30.1932595
"Gilmer Nursing and Rehabilitation, LP",539,703 TITUS ST,,GILMER,TX,75644,Upshur,703 TITUS ST GILMER TX 75644,-94.9437354,32.7344644
Glen Rose Nursing and Rehab Center,542,1019 HOLDEN ST,,GLEN ROSE,TX,76043,Somervell,1019 HOLDEN ST GLEN ROSE TX 76043,-97.7467762,32.2420519
Glenview Wellness and Rehab,543,7625 GLENVIEW DR,,RICHLAND HILLS,TX,76180,Tarrant,7625 GLENVIEW DR RICHLAND HILLS TX 76180,-97.2131292,32.8243194
Golden Acres Living and Rehabilitation Center,544,2525 CENTERVILLE RD,,DALLAS,TX,75228,Dallas,2525 CENTERVILLE RD DALLAS TX 75228,-96.66882369999999,32.844072
Golden Age Healthcare Residence,545,704 E DOBKINS ST,,DUBLIN,TX,76446,Erath,704 E DOBKINS ST DUBLIN TX 76446,-98.3347687,32.0800088
Golden Creek Healthcare and Rehabilitation Center,547,2100 DOVE CROSSING LN,,NAVASOTA,TX,77868,Grimes,2100 DOVE CROSSING LN NAVASOTA TX 77868,-96.06514779999999,30.3882299
Golden Estates Rehabilitation Center,548,130 SPENCER LN,,SAN ANTONIO,TX,78201,Bexar,130 SPENCER LN SAN ANTONIO TX 78201,-98.5366451,29.483547
Golden Palms Health Center,549,2101 TREASURE HILLS BLVD,,HARLINGEN,TX,78550,Cameron,2101 TREASURE HILLS BLVD HARLINGEN TX 78550,-97.66710379999999,26.175207
Golden Plains Community Hospital,550,100 MEDICAL DR,,BORGER,TX,79007,Hutchinson,100 MEDICAL DR BORGER TX 79007,-101.4091088,35.6551917
Golden Villa Nursing Home,551,1104 S WILLIAM ST,,ATLANTA,TX,75551,Cass,1104 S WILLIAM ST ATLANTA TX 75551,-94.1678657,33.1034612
Golden Years Nursing and Rehabilitation Center,552,318 CHAMBERS ST,,MARLIN,TX,76661,Falls,318 CHAMBERS ST MARLIN TX 76661,-96.89337210000001,31.3080216
Gonzales Memorial Hospital,555,1110 N SARAH DEWITT DR,,GONZALES,TX,78629,Gonzales,1110 N SARAH DEWITT DR GONZALES TX 78629,-97.43163559999999,29.5171506
Good Samaritan Society Denton Village,556,2500 HINKLE DR,,DENTON,TX,76201,Denton,2500 HINKLE DR DENTON TX 76201,-97.1443422,33.2371683
Good Samaritan Society Lake Forest Village,557,3901 MONTECITO DR,,DENTON,TX,76210,Denton,3901 MONTECITO DR DENTON TX 76210,-97.12029129999999,33.1607908
Good Samaritan Society White Acres,558,7304 GOOD SAMARITAN CT,,EL PASO,TX,79912,El Paso,7304 GOOD SAMARITAN CT EL PASO TX 79912,-106.5600184,31.8458044
Grace Care Center at Northpointe,564,11830 NORTHPOINTE BLVD,,TOMBALL,TX,77377,Harris,11830 NORTHPOINTE BLVD TOMBALL TX 77377,-95.6103967,30.0340706
Grace Care Center of Cypress,565,9602 HUFFMEISTER RD,,HOUSTON,TX,77095,Harris,9602 HUFFMEISTER RD HOUSTON TX 77095,-95.62796999999999,29.9175361
Grace Care Center of Henrietta,566,807 W BOIS D ARC ST,,HENRIETTA,TX,76365,Clay,807 W BOIS D ARC ST HENRIETTA TX 76365,-98.20250419999999,33.8132079
Grace Hill Nursing and Rehabilitation,568,215 FM 161 S,,HUGHES SPRINGS,TX,75656,Cass,215 FM 161 S HUGHES SPRINGS TX 75656,-94.63353389999999,32.9896237
GRACE POINTE WELLNESS CENTER,569,2301 N OREGON ST,,EL PASO,TX,79902,El Paso,2301 N OREGON ST EL PASO TX 79902,-106.5022043,31.7735651
Grace Presbyterian Village,570,550 E ANN ARBOR AVE,,DALLAS,TX,75216,Dallas,550 E ANN ARBOR AVE DALLAS TX 75216,-96.81651490000002,32.6911217
Gracy Woods 2 Nursing Center,571,12042 BITTERN HOLW,,AUSTIN,TX,78758,Travis,12042 BITTERN HOLW AUSTIN TX 78758,-97.6997116,30.40148629999999
Gracy Woods Nursing Center 1,572,12021 METRIC BLVD,,AUSTIN,TX,78758,Travis,12021 METRIC BLVD AUSTIN TX 78758,-97.7007295,30.4022316
Graham Oaks Care Center,573,1325 1ST ST,,GRAHAM,TX,76450,Young,1325 1ST ST GRAHAM TX 76450,-98.57316519999999,33.1032075
Graham Regional Medical Center,574,1301 MONTGOMERY RD,,GRAHAM,TX,76450,Young,1301 MONTGOMERY RD GRAHAM TX 76450,-98.5844084,33.0898689
Granbury Care Center,575,301 S PARK ST,,GRANBURY,TX,76048,Hood,301 S PARK ST GRANBURY TX 76048,-97.79847509999999,32.4398559
Granbury Villa Nursing Center,576,2124 PALUXY HWY,,GRANBURY,TX,76048,Hood,2124 PALUXY HWY GRANBURY TX 76048,-97.8161882,32.4198958
Grand Terrace Rehabilitation And Health Care,577,812 W HOUSTON AVE,,MCALLEN,TX,78501,Hidalgo,812 W HOUSTON AVE MCALLEN TX 78501,-98.2294155,26.1963741
Grandview Nursing And Rehabilitation Center,578,301 W CRINER ST,,GRANDVIEW,TX,76050,Johnson,301 W CRINER ST GRANDVIEW TX 76050,-97.18507269999999,32.2709404
Granite Mesa Health Center,580,1401 MAX COPELAND DR,,MARBLE FALLS,TX,78654,Burnet,1401 MAX COPELAND DR MARBLE FALLS TX 78654,-98.2673664,30.5814242
Grapevine Medical Lodge,581,1005 IRA E WOODS AVE,,GRAPEVINE,TX,76051,Tarrant,1005 IRA E WOODS AVE GRAPEVINE TX 76051,-97.0874738,32.9296102
Grayson Square Health Care Center,582,815 E GRAYSON ST,,SAN ANTONIO,TX,78208,Bexar,815 E GRAYSON ST SAN ANTONIO TX 78208,-98.4713429,29.4435018
Great Plains Nursing and Rehabilitation,583,315 E 19TH ST,,DUMAS,TX,79029,Moore,315 E 19TH ST DUMAS TX 79029,-101.9697147,35.84344360000001
Green Valley Healthcare and Rehabilitation Center,584,6850 RUFE SNOW DR,,FORT WORTH,TX,76148,Tarrant,6850 RUFE SNOW DR FORT WORTH TX 76148,-97.2372224,32.8707859
Greenbrier Nursing and Rehabilitation Center,585,2404 STATE HIGHWAY 155,,PALESTINE,TX,75803,Anderson,2404 STATE HIGHWAY 155 PALESTINE TX 75803,-95.6189364,31.7883209
Greenbrier Nursing and Rehabilitation Center of Tyler,586,3526 W ERWIN ST,,TYLER,TX,75702,Smith,3526 W ERWIN ST TYLER TX 75702,-95.3409308,32.3521026
Greenhill Villas of Mount Pleasant,587,2530 GREENHILL RD,,MOUNT PLEASANT,TX,75455,Titus,2530 GREENHILL RD MOUNT PLEASANT TX 75455,-94.9732435,33.19182740000001
Greenview Manor,589,401 OWEN LN,,WACO,TX,76710,McLennan,401 OWEN LN WACO TX 76710,-97.1925496,31.5176867
Greenville Gardens,590,3500 PARK ST,,GREENVILLE,TX,75401,Hunt,3500 PARK ST GREENVILLE TX 75401,-96.116711,33.1311419
Greenville Health And Rehab Center,591,4910 WELLINGTON ST,,GREENVILLE,TX,75402,Hunt,4910 WELLINGTON ST GREENVILLE TX 75402,-96.1269378,33.1221923
Groesbeck LTC Nursing and Rehabilitation,592,607 PARKSIDE DR,,GROESBECK,TX,76642,Limestone,607 PARKSIDE DR GROESBECK TX 76642,-96.52271259999999,31.52189419999999
Groveton Nursing Home and Assisted Living,593,1020 W 1ST ST,,GROVETON,TX,75845,Trinity,1020 W 1ST ST GROVETON TX 75845,-95.13697669999999,31.0626261
Guadalupe Valley Nursing And Rehabilitation Center,594,1210 EASTWOOD DR,,SEGUIN,TX,78155,Guadalupe,1210 EASTWOOD DR SEGUIN TX 78155,-97.9477813,29.5638871
Gulf Healthcare Center Galveston,597,3702 COVE VIEW BLVD,,GALVESTON,TX,77554,Galveston,3702 COVE VIEW BLVD GALVESTON TX 77554,-94.8664168,29.2457419
Gulf Healthcare Center Port Arthur,598,6600 9TH AVE,,PORT ARTHUR,TX,77642,Jefferson,6600 9TH AVE PORT ARTHUR TX 77642,-93.96428929999999,29.9403542
Gulf Pointe Plaza,599,1008 ENTERPRISE BLVD,,ROCKPORT,TX,78382,Aransas,1008 ENTERPRISE BLVD ROCKPORT TX 78382,-97.05073019999999,28.0415089
Hacienda Oaks at Beeville,601,4713 BUSINESS 181 N,,BEEVILLE,TX,78102,Bee,4713 BUSINESS 181 N BEEVILLE TX 78102,-97.76372889999999,28.4432696
Hacienda Oaks Nursing and Rehabilitation Center,602,1637 N KING ST,,SEGUIN,TX,78155,Guadalupe,1637 N KING ST SEGUIN TX 78155,-97.9497092,29.5870014
Hallettsville Nursing And Rehabilitation Center,605,825 W FAIRWINDS ST,,HALLETTSVILLE,TX,77964,Lavaca,825 W FAIRWINDS ST HALLETTSVILLE TX 77964,-96.9576112,29.4377471
Hamilton General Hospital,606,400 N BROWN ST,,HAMILTON,TX,76531,Hamilton,400 N BROWN ST HAMILTON TX 76531,-98.1134194,31.7031177
Hamilton Healthcare Center,608,910 E PIERSON ST,,HAMILTON,TX,76531,Hamilton,910 E PIERSON ST HAMILTON TX 76531,-98.113672,31.6970651
Hamilton Hospital,609,901 W HAMILTON ST,,OLNEY,TX,76374,Young,901 W HAMILTON ST OLNEY TX 76374,-98.76424689999999,33.3691925
Hamlin Memorial Hospital,611,632 NW 2ND ST,,HAMLIN,TX,79520,Jones,632 NW 2ND ST HAMLIN TX 79520,-100.135054,32.8858294
Harlingen Nursing and Rehabilitation Center,618,3810 HALE AVE,,HARLINGEN,TX,78550,Cameron,3810 HALE AVE HARLINGEN TX 78550,-97.6844023,26.168964
Haskell Healthcare Center,622,1504 N 1ST ST,,HASKELL,TX,79521,Haskell,1504 N 1ST ST HASKELL TX 79521,-99.7463926,33.158565
Haskell Memorial Hospital,623,1 AVENUE N,,HASKELL,TX,79521,Haskell,1 AVENUE N HASKELL TX 79521,-99.7446581,33.1572901
Haven Care Nursing and Rehabilitation Center,624,111 RUTHLYNN DR,,LONGVIEW,TX,75605,Gregg,111 RUTHLYNN DR LONGVIEW TX 75605,-94.74465099999999,32.5306518
Hays Nursing and Rehabilitation Center,625,1900 MEDICAL PKWY,,SAN MARCOS,TX,78666,Hays,1900 MEDICAL PKWY SAN MARCOS TX 78666,-97.9463043,29.8550297
Hearthstone Health Center,631,401 OAKWOOD BLVD,,ROUND ROCK,TX,78681,Williamson,401 OAKWOOD BLVD ROUND ROCK TX 78681,-97.7115882,30.5115242
Hemphill Care Center,633,HIGHWAY 83 W,,HEMPHILL,TX,75948,Sabine,HIGHWAY 83 W HEMPHILL TX 75948,-93.86300589999999,31.338945
Henderson Health and Rehabilitation Center,635,1010 W MAIN ST,,HENDERSON,TX,75652,Rusk,1010 W MAIN ST HENDERSON TX 75652,-94.81427939999999,32.1517045
Hereford Nursing and Rehabilitation Center,638,231 KINGWOOD ST,,HEREFORD,TX,79045,Deaf Smith,231 KINGWOOD ST HEREFORD TX 79045,-102.423864,34.828042
Heritage at Longview Healthcare and Rehabilitation,640,112 RUTHLYNN DR,,LONGVIEW,TX,75605,Gregg,112 RUTHLYNN DR LONGVIEW TX 75605,-94.7447723,32.5291038
Heritage at Turner Park,641,820 SMALL ST,,GRAND PRAIRIE,TX,75050,Dallas,820 SMALL ST GRAND PRAIRIE TX 75050,-96.99315419999999,32.7496041
Heritage Convalescent Center,642,1009 CLYDE ST,,AMARILLO,TX,79106,Potter,1009 CLYDE ST AMARILLO TX 79106,-101.8975266,35.2042272
Heritage Gardens Healthcare Center,643,2135 DENTON DR,,CARROLLTON,TX,75006,Dallas,2135 DENTON DR CARROLLTON TX 75006,-96.9077492,32.9749394
Heritage House Nursing and Rehabilitation,645,407 N COLLEGE,,ROSEBUD,TX,76570,Falls,407 N COLLEGE ROSEBUD TX 76570,-96.974379,31.0791498
Heritage House of Keller,646,1150 WHITLEY RD,,KELLER,TX,76248,Tarrant,1150 WHITLEY RD KELLER TX 76248,-97.2529382,32.9154762
Heritage House of Marshall Healthcare and Rehabilitation Center,647,5915 ELYSIAN FIELDS RD,,MARSHALL,TX,75672,Harrison,5915 ELYSIAN FIELDS RD MARSHALL TX 75672,-94.308786,32.503686
Heritage House Of Paris,648,150 47TH ST SE,,PARIS,TX,75462,Lamar,150 47TH ST SE PARIS TX 75462,-95.49748629999999,33.6597889
Heritage Nursing and Rehabilitation,651,5437 EISENHAUER RD,,SAN ANTONIO,TX,78218,Bexar,5437 EISENHAUER RD SAN ANTONIO TX 78218,-98.37454149999999,29.50237989999999
Heritage Oaks Nursing and Rehabilitation Center,652,5301 UNIVERSITY AVE,,LUBBOCK,TX,79413,Lubbock,5301 UNIVERSITY AVE LUBBOCK TX 79413,-101.8698367,33.54576590000001
Heritage Oaks Residence and Rehabilitation Center,653,1112 GIBBINS RD,,ARLINGTON,TX,76011,Tarrant,1112 GIBBINS RD ARLINGTON TX 76011,-97.1123013,32.7520241
Heritage Oaks West Retirement Village,655,3300 W 2ND AVE,,CORSICANA,TX,75110,Navarro,3300 W 2ND AVE CORSICANA TX 75110,-96.50239359999999,32.0809411
Heritage Park of Katy Nursing and Rehabilitation,656,6001 GEORGE BUSH DR,,KATY,TX,77493,Harris,6001 GEORGE BUSH DR KATY TX 77493,-95.8270601,29.7901577
Heritage Park Rehabilitation and Skilled Nursing Center,657,2806 REAL ST,,AUSTIN,TX,78722,Travis,2806 REAL ST AUSTIN TX 78722,-97.7119275,30.282945
Heritage Plaza Nursing Center,659,600 W 52ND ST,,TEXARKANA,TX,75503,Bowie,600 W 52ND ST TEXARKANA TX 75503,-94.048948,33.4692801
Heritage Trails Nursing and Rehabilitation Center,661,301 LINCOLN PARK DR,,CLEBURNE,TX,76033,Johnson,301 LINCOLN PARK DR CLEBURNE TX 76033,-97.412123,32.343411
Heritage Villa Nursing and Rehabilitation,662,310 E LAWRENCE ST,,DAYTON,TX,77535,Liberty,310 E LAWRENCE ST DAYTON TX 77535,-94.8929546,30.0602673
Hico Nursing and Rehabilitation Center,663,712 RAILROAD ST,,HICO,TX,76457,Hamilton,712 RAILROAD ST HICO TX 76457,-98.04073199999999,31.98266599999999
High Hope Care Center of Brenham,665,401 E BLUE BELL RD,,BRENHAM,TX,77833,Washington,401 E BLUE BELL RD BRENHAM TX 77833,-96.39837759999999,30.1779617
Highland Meadows Health and Rehab,667,1870 JOHN KING BLVD,,ROCKWALL,TX,75032,Rockwall,1870 JOHN KING BLVD ROCKWALL TX 75032,-96.43190700000001,32.9055491
Highland Meadows Health and Rehabilitation,668,1870 S JOHN KING BLVD,,ROCKWALL,TX,75032,,1870 S JOHN KING BLVD ROCKWALL TX 75032,-96.43180079999999,32.899619
Highland Park Care Center,670,8861 FULTON ST,,HOUSTON,TX,77022,Harris,8861 FULTON ST HOUSTON TX 77022,-95.3761215,29.8404655
Highland Pines Nursing Home and Rehab Center,671,1100 N 4TH ST,,LONGVIEW,TX,75601,Gregg,1100 N 4TH ST LONGVIEW TX 75601,-94.73021849999999,32.5094523
Hill Country Care Healthcare and Rehabilitation,673,1505 W HIGHWAY 290,,DRIPPING SPRINGS,TX,78620,Hays,1505 W HIGHWAY 290 DRIPPING SPRINGS TX 78620,-98.1095802,30.1992512
Hill Country Rehabilitation and Nursing Center,676,810 INDUSTRIAL AVE,,COPPERAS COVE,TX,76522,Coryell,810 INDUSTRIAL AVE COPPERAS COVE TX 76522,-97.8926558,31.1236706
Hill Regional Hospital,677,101 CIRCLE DR,,HILLSBORO,TX,76645,Hill,101 CIRCLE DR HILLSBORO TX 76645,-97.09937769999999,32.0131078
Hillside Heights Rehabilitation Suites,679,6650 S SONCY RD,,AMARILLO,TX,79119,Randall,6650 S SONCY RD AMARILLO TX 79119,-101.9392437,35.1394118
Hillside Medical Lodge,680,300 S HIGHWAY 36 BYP N,,GATESVILLE,TX,76528,Coryell,300 S HIGHWAY 36 BYP N GATESVILLE TX 76528,-97.71633600000001,31.4307528
Hilltop Park Rehabilitation and Care Center,682,970 HILLTOP DR,,WEATHERFORD,TX,76086,Parker,970 HILLTOP DR WEATHERFORD TX 76086,-97.778054,32.7444068
Hilltop Village Nursing and Rehabilitation Center,683,1400 HILLTOP RD,,KERRVILLE,TX,78028,Kerr,1400 HILLTOP RD KERRVILLE TX 78028,-99.1578964,30.0772703
Hillview Manor Nursing And Rehabilitation Center,684,1110 RICE ST,,GOLDTHWAITE,TX,76844,Mills,1110 RICE ST GOLDTHWAITE TX 76844,-98.56364630000002,31.4527836
Hogan Clark Nursing and Rehabilitation Center,685,3203 SAGE ST,,MIDLAND,TX,79705,Midland,3203 SAGE ST MIDLAND TX 79705,-102.0737026,32.0305822
"Holiday Hill, Inc",686,245 STATE HIGHWAY 153,,COLEMAN,TX,76834,Coleman,245 STATE HIGHWAY 153 COLEMAN TX 76834,-99.448082,31.82761199999999
Holiday Nursing And Rehabilitation,687,280 MOFFITT DR,,CENTER,TX,75935,Shelby,280 MOFFITT DR CENTER TX 75935,-94.1965676,31.811406
Holly Hall,689,2000 HOLLY HALL ST,,HOUSTON,TX,77054,Harris,2000 HOLLY HALL ST HOUSTON TX 77054,-95.4011542,29.6841764
Hollymead,690,4101 LONG PRAIRIE RD,,FLOWER MOUND,TX,75028,Denton,4101 LONG PRAIRIE RD FLOWER MOUND TX 75028,-97.07024349999999,33.0414982
Homestead Nursing And Rehabilitation Of Baird,692,224 E 6TH ST,,BAIRD,TX,79504,Callahan,224 E 6TH ST BAIRD TX 79504,-99.3922434,32.3966464
"Homestead Nursing and Rehabilitation of Collinsville, LLC",693,501 N MAIN ST,,COLLINSVILLE,TX,76233,Grayson,501 N MAIN ST COLLINSVILLE TX 76233,-96.9108933,33.5646531
"Homestead Nursing and Rehabilitation of Hillsboro, LLC",695,1725 OLD BRANDON RD,,HILLSBORO,TX,76645,Hill,1725 OLD BRANDON RD HILLSBORO TX 76645,-97.0903969,32.01791600000001
"Homestead Nursing and Rehabilitation of Itasca, LLC",696,409 S FILES ST,,ITASCA,TX,76055,Hill,409 S FILES ST ITASCA TX 76055,-97.1424581,32.1587489
Hondo Nursing and Rehabilitation,698,3002 AVENUE Q,,HONDO,TX,78861,Medina,3002 AVENUE Q HONDO TX 78861,-99.14678269999999,29.3363925
Honey Grove Nursing Center,699,1303 E MAIN ST,,HONEY GROVE,TX,75446,Fannin,1303 E MAIN ST HONEY GROVE TX 75446,-95.8967751,33.5846963
Houston County Nursing Home,702,100 NE LOOP 304,,CROCKETT,TX,75835,Houston,100 NE LOOP 304 CROCKETT TX 75835,-95.467705,31.3613925
Houston Methodist Hospital,705,6565 FANNIN ST,,HOUSTON,TX,77030,Harris,6565 FANNIN ST HOUSTON TX 77030,-95.3997225,29.7099079
HOUSTON TRANSITIONAL CARE,708,8550 JASON ST,,HOUSTON,TX,77074,,8550 JASON ST HOUSTON TX 77074,-95.5268755,29.6855172
Huebner Creek Health and Rehabilitation Center,709,8306 HUEBNER RD,,SAN ANTONIO,TX,78240,Bexar,8306 HUEBNER RD SAN ANTONIO TX 78240,-98.6061872,29.5151489
Humble Healthcare Center,711,93 ISAACKS RD,,HUMBLE,TX,77338,Harris,93 ISAACKS RD HUMBLE TX 77338,-95.2595066,29.9933875
Huntington Healthcare And Rehabilitation,715,220 E ASH ST,,HUNTINGTON,TX,75949,Angelina,220 E ASH ST HUNTINGTON TX 75949,-94.57396890000001,31.2775619
Huntsville Healthcare Center,716,2628 MILAM ST,,HUNTSVILLE,TX,77340,Walker,2628 MILAM ST HUNTSVILLE TX 77340,-95.541427,30.70245779999999
Hurst Plaza Nursing and Rehabilitation,718,215 E PLAZA BLVD,,HURST,TX,76053,Tarrant,215 E PLAZA BLVD HURST TX 76053,-97.1652634,32.8264998
Immanuels Healthcare,722,4515 VILLAGE CREEK RD,,FORT WORTH,TX,76119,Tarrant,4515 VILLAGE CREEK RD FORT WORTH TX 76119,-97.24796599999999,32.6981313
Indian Oaks Living Center,723,415 INDIAN OAKS DR,,HARKER HEIGHTS,TX,76548,Bell,415 INDIAN OAKS DR HARKER HEIGHTS TX 76548,-97.6596007,31.075416
Inspiration Hills Rehabilitation Center,724,1939 BANDERA RD,,SAN ANTONIO,TX,78228,Bexar,1939 BANDERA RD SAN ANTONIO TX 78228,-98.57720959999999,29.4719791
Interlochen Health and Rehabilitation Center,726,2645 W RANDOL MILL RD,,ARLINGTON,TX,76012,Tarrant,2645 W RANDOL MILL RD ARLINGTON TX 76012,-97.1462847,32.756942
Iowa Park Healthcare Center,727,1109 N 3RD ST,,IOWA PARK,TX,76367,Wichita,1109 N 3RD ST IOWA PARK TX 76367,-98.6793986,33.9615199
"Irving Nursing and Rehabilitation, LP",730,619 N BRITAIN RD,,IRVING,TX,75061,Dallas,619 N BRITAIN RD IRVING TX 75061,-96.942678,32.8194019
Jacinto City Healthcare Center,734,1405 HOLLAND ST,,HOUSTON,TX,77029,Harris,1405 HOLLAND ST HOUSTON TX 77029,-95.2334211,29.7655817
Jackson County Hospital,735,1013 S WELLS ST,,EDNA,TX,77957,Jackson,1013 S WELLS ST EDNA TX 77957,-96.635781,28.969106
Jacksonville Healthcare Center,736,305 BONITA ST,,JACKSONVILLE,TX,75766,Cherokee,305 BONITA ST JACKSONVILLE TX 75766,-95.2760024,31.9484691
Jefferson Nursing and Rehabilitation Center,739,3840 POINTE PKWY,,BEAUMONT,TX,77706,Jefferson,3840 POINTE PKWY BEAUMONT TX 77706,-94.1800956,30.1172704
Jeffrey Place Healthcare Center,740,820 JEFFREY ST,,WACO,TX,76710,McLennan,820 JEFFREY ST WACO TX 76710,-97.1858032,31.5274765
Kaufman Healthcare Center,746,3001 S HOUSTON ST,,KAUFMAN,TX,75142,Kaufman,3001 S HOUSTON ST KAUFMAN TX 75142,-96.31434159999999,32.5727727
"Keeneland Nursing and Rehabilitation, LP",747,700 S BOWIE DR,,WEATHERFORD,TX,76086,Parker,700 S BOWIE DR WEATHERFORD TX 76086,-97.8150837,32.7513088
Keller Oaks Healthcare Center,748,8703 DAVIS BLVD,,KELLER,TX,76248,Tarrant,8703 DAVIS BLVD KELLER TX 76248,-97.1905603,32.9123807
Kemp Care,749,1351 S ELM ST,,KEMP,TX,75143,Henderson,1351 S ELM ST KEMP TX 75143,-96.217272,32.430314
Kendall House Wellness and Rehabilitation,750,1050 GRAND BLVD,,BOERNE,TX,78006,Kendall,1050 GRAND BLVD BOERNE TX 78006,-98.733976,29.7734527
Kennedy Health And Rehab,752,504 N JOHN REDDITT DR,,LUFKIN,TX,75904,Angelina,504 N JOHN REDDITT DR LUFKIN TX 75904,-94.7603006,31.3375605
Kerens Care Center,754,809 NE 4TH ST,,KERENS,TX,75144,Navarro,809 NE 4TH ST KERENS TX 75144,-96.21946,32.1379729
Kerrville Va Medical Center Swing Bed,756,3600 MEMORIAL BLVD,,KERRVILLE,TX,78028,,3600 MEMORIAL BLVD KERRVILLE TX 78028,-99.1163103,30.0136003
Kimble Hospital,759,349 REID RD,,JUNCTION,TX,76849,Kimble,349 REID RD JUNCTION TX 76849,-99.7783187,30.498798
Kings Manor Methodist Home,763,400 RANGER ST,,HEREFORD,TX,79045,Deaf Smith,400 RANGER ST HEREFORD TX 79045,-102.4090918,34.8309928
Kingsland Hills Care Center,764,3727 W RANCH ROAD 1431,,KINGSLAND,TX,78639,Llano,3727 W RANCH ROAD 1431 KINGSLAND TX 78639,-98.4583128,30.6754391
Kingsville Nursing and Rehabilitation Center,765,3130 S BRAHMA BLVD,,KINGSVILLE,TX,78363,Kleberg,3130 S BRAHMA BLVD KINGSVILLE TX 78363,-97.8549006,27.4867242
Kirkland Court Health and Rehabilitation,766,1601 KIRKLAND DR,,AMARILLO,TX,79106,Potter,1601 KIRKLAND DR AMARILLO TX 79106,-101.9094757,35.1941152
Kirkwood Manor Nursing and Rehab Center,767,2590 LOOP 337,,NEW BRAUNFELS,TX,78130,Comal,2590 LOOP 337 NEW BRAUNFELS TX 78130,-98.15540779999999,29.71460489999999
"Kleberg County Nursing and Rehabilitation, LP",768,316 GENERAL CAVAZOS BLVD,,KINGSVILLE,TX,78363,Kleberg,316 GENERAL CAVAZOS BLVD KINGSVILLE TX 78363,-97.86625049999999,27.4924175
Knopp Healthcare and Rehabilitation,770,1208 N LLANO ST,,FREDERICKSBURG,TX,78624,Gillespie,1208 N LLANO ST FREDERICKSBURG TX 78624,-98.86054969999999,30.2846096
Knopp Nursing and Rehabilitation,772,202 BILLIE DR,,FREDERICKSBURG,TX,78624,,202 BILLIE DR FREDERICKSBURG TX 78624,-98.88336609999999,30.2570668
Kountze Nursing Center,774,604 FM 1293 RD,,KOUNTZE,TX,77625,Hardin,604 FM 1293 RD KOUNTZE TX 77625,-94.3233247,30.37129049999999
Kruse Village,775,1700 E STONE ST,,BRENHAM,TX,77833,Washington,1700 E STONE ST BRENHAM TX 77833,-96.3764642,30.1535627
La Bahia Nursing And Rehabilitation,776,225 E WARD ST,,GOLIAD,TX,77963,Goliad,225 E WARD ST GOLIAD TX 77963,-97.3902372,28.6788474
La Dora Nursing and Rehab Center,777,1960 BEDFORD RD,,BEDFORD,TX,76021,Tarrant,1960 BEDFORD RD BEDFORD TX 76021,-97.1365266,32.8444933
La Vida Serena Nursing and Rehabilitation,781,711 KINGS WAY,,DEL RIO,TX,78840,Val Verde,711 KINGS WAY DEL RIO TX 78840,-100.9184594,29.40648179999999
Lake Jackson Healthcare Center,785,413 GARLAND DR,,LAKE JACKSON,TX,77566,Brazoria,413 GARLAND DR LAKE JACKSON TX 77566,-95.4227157,29.0146156
"Lake Lodge Nursing and Rehabilitation, LP",786,3800 MARINA DR,,FORT WORTH,TX,76135,Tarrant,3800 MARINA DR FORT WORTH TX 76135,-97.4489954,32.8122951
Lake Village Nursing and Rehabilitation Center,788,169 LAKE PARK RD,,LEWISVILLE,TX,75057,Denton,169 LAKE PARK RD LEWISVILLE TX 75057,-97.01243389999999,33.0722247
Lake Worth Nursing and Rehabilitation,789,4220 WELLS DR,,FORT WORTH,TX,76135,Tarrant,4220 WELLS DR FORT WORTH TX 76135,-97.44717399999999,32.81706
"Lakeridge LTC Partners, Inc",790,4403 74TH ST,,LUBBOCK,TX,79424,Lubbock,4403 74TH ST LUBBOCK TX 79424,-101.9060378,33.5264082
Lakeshore Village Healthcare Center,791,2320 LAKE SHORE DR,,WACO,TX,76708,McLennan,2320 LAKE SHORE DR WACO TX 76708,-97.1874029,31.5898414
Lakeside Nursing And Rehabilitation Center,792,8707 LAKESIDE PKWY,,SAN ANTONIO,TX,78245,Bexar,8707 LAKESIDE PKWY SAN ANTONIO TX 78245,-98.6569198,29.4324059
Lakeside Rehabilitation and Care Center,793,4306 24TH ST,,LUBBOCK,TX,79410,Lubbock,4306 24TH ST LUBBOCK TX 79410,-101.9034754,33.5728999
Lakewest Rehabilitation And Healthcare Center,794,2450 BICKERS ST,,DALLAS,TX,75212,Dallas,2450 BICKERS ST DALLAS TX 75212,-96.86130930000002,32.78638
Lamb Healthcare Center,796,1500 S SUNSET AVE,,LITTLEFIELD,TX,79339,Lamb,1500 S SUNSET AVE LITTLEFIELD TX 79339,-102.3442909,33.9119389
Lampasas Nursing And Rehabilitation Center,798,611 N BROAD ST,,LAMPASAS,TX,76550,Lampasas,611 N BROAD ST LAMPASAS TX 76550,-98.1875127,31.07229659999999
Lampstand Nursing And Rehabilitation,799,2001 E 29TH ST,,BRYAN,TX,77802,Brazos,2001 E 29TH ST BRYAN TX 77802,-96.3555559,30.6580709
Lamun-Lusk-Sanchez Texas State Veterans Home,800,1809 N US HIGHWAY 87,,BIG SPRING,TX,79720,Howard,1809 N US HIGHWAY 87 BIG SPRING TX 79720,-101.494396,32.2675015
Landmark Of Amarillo,803,5601 PLUM CREEK DR,,AMARILLO,TX,79124,Potter,5601 PLUM CREEK DR AMARILLO TX 79124,-101.9026649,35.2188103
Laporte Healthcare Center,805,208 S UTAH ST,,LA PORTE,TX,77571,Harris,208 S UTAH ST LA PORTE TX 77571,-95.01495489999999,29.6656014
Laredo Medical Center,806,1700 E SAUNDERS ST,,LAREDO,TX,78041,Webb,1700 E SAUNDERS ST LAREDO TX 78041,-99.4779827,27.5325136
Laredo Nursing and Rehabilitation Center,807,1701 TOURNAMENT TRAIL DR,,LAREDO,TX,78041,Webb,1701 TOURNAMENT TRAIL DR LAREDO TX 78041,-99.4692211,27.5719607
Larkspur Transitional Care,810,201 S JOHN REDDITT DR,,LUFKIN,TX,75904,Angelina,201 S JOHN REDDITT DR LUFKIN TX 75904,-94.7575272,31.3308714
Las Brisas Rehabilitation and Wellness Suites,812,3421 STORY RD W,,IRVING,TX,75038,,3421 STORY RD W IRVING TX 75038,-96.9932719,32.8715582
Las Colinas of Westover,813,9738 WESTOVER HILLS BLVD,,SAN ANTONIO,TX,78251,Bexar,9738 WESTOVER HILLS BLVD SAN ANTONIO TX 78251,-98.68313830000001,29.4653631
Las Palmas Nursing and Rehabilitation Center,815,1301 E QUEBEC AVE,,MCALLEN,TX,78503,Hidalgo,1301 E QUEBEC AVE MCALLEN TX 78503,-98.2099348,26.1852096
Las Palmas Skilled Nursing and Rehabilitation,816,369 MARS DR,,COTULLA,TX,78014,La Salle,369 MARS DR COTULLA TX 78014,-99.2405398,28.4457794
LAS VENTANAS DE SOCORRO,817,10064 ALAMEDA AVE,,SOCORRO,TX,79927,,10064 ALAMEDA AVE SOCORRO TX 79927,-106.2968084,31.66007519999999
Laurel Court,818,3830 MUSTANG RD,,ALVIN,TX,77511,Brazoria,3830 MUSTANG RD ALVIN TX 77511,-95.2365377,29.38834959999999
Laurenwood Nursing and Rehabilitation,819,330 W CAMP WISDOM RD,,DUNCANVILLE,TX,75116,Dallas,330 W CAMP WISDOM RD DUNCANVILLE TX 75116,-96.9132829,32.6606029
Lavaca Hospital District,820,1400 N TEXANA ST,,HALLETTSVILLE,TX,77964,Lavaca,1400 N TEXANA ST HALLETTSVILLE TX 77964,-96.93957429999999,29.4609714
Lawrence Street Healthcare Center,821,615 LAWRENCE ST,,TOMBALL,TX,77375,Harris,615 LAWRENCE ST TOMBALL TX 77375,-95.62550619999999,30.087414
Legacy at Jacksonville,825,810 BELLAIRE ST,,JACKSONVILLE,TX,75766,Cherokee,810 BELLAIRE ST JACKSONVILLE TX 75766,-95.2240008,31.9648671
Legacy Nursing And Rehabilitation,826,2817 KENT ST,,BRYAN,TX,77802,Brazos,2817 KENT ST BRYAN TX 77802,-96.344894,30.6547085
Legacy Rehabilitation and Living,827,4033 SW 51ST AVE,,AMARILLO,TX,79109,Randall,4033 SW 51ST AVE AMARILLO TX 79109,-101.8829787,35.1543338
Legend Healthcare and Rehabilitation Euless,828,900 WESTPARK WAY,,EULESS,TX,76040,Tarrant,900 WESTPARK WAY EULESS TX 76040,-97.1239082,32.825047
Legend Healthcare and Rehabilitation Greenville,829,2300 JACK FINNEY BLVD,,GREENVILLE,TX,75402,Hunt,2300 JACK FINNEY BLVD GREENVILLE TX 75402,-96.10491309999999,33.076337
Legend Healthcare and Rehabilitation Paris,830,520 8TH ST SE,,PARIS,TX,75460,Lamar,520 8TH ST SE PARIS TX 75460,-95.54901339999999,33.6565755
Legend Oaks Healthcare And Rehabilitation,831,2468 FM 1101,,NEW BRAUNFELS,TX,78130,Comal,2468 FM 1101 NEW BRAUNFELS TX 78130,-98.0638241,29.7202682
Legend Oaks Healthcare and Rehabilitation Center,833,8902 WEST RD,,HOUSTON,TX,77064,Harris,8902 WEST RD HOUSTON TX 77064,-95.54519959999999,29.9035144
Legend Oaks Healthcare and Rehabilitation Center,834,2003 W HUTCHINS PL,,SAN ANTONIO,TX,78224,Bexar,2003 W HUTCHINS PL SAN ANTONIO TX 78224,-98.539616,29.3463238
Legend Oaks Healthcare and Rehabilitation Ennis,835,1400 MEDICAL CENTER DR,,ENNIS,TX,75119,Ellis,1400 MEDICAL CENTER DR ENNIS TX 75119,-96.63934359999999,32.3090176
Legend Oaks Healthcare and Rehabilitation Gladewater,838,1201 FARM ROAD 2685,,GLADEWATER,TX,75647,Gregg,1201 FARM ROAD 2685 GLADEWATER TX 75647,-94.976402,32.551259
Legend Oaks Healthcare and Rehabilitation of East Houston,840,15880 WALLISVILLE RD,,HOUSTON,TX,77049,Harris,15880 WALLISVILLE RD HOUSTON TX 77049,-95.15306249999999,29.8108824
Legend Oaks Healthcare And Rehabilitation Of Fort Worth,841,4240 GOLDEN TRIANGLE BLVD,,FORT WORTH,TX,76244,Tarrant,4240 GOLDEN TRIANGLE BLVD FORT WORTH TX 76244,-97.2929181,32.9298108
Legend Oaks Healthcare And Rehabilitation Of North Houston,842,12921 MISTY WILLOW DR,,HOUSTON,TX,77070,Harris,12921 MISTY WILLOW DR HOUSTON TX 77070,-95.55718499999999,29.960332
Legend Oaks Healthcare And Rehabilitation Waxahachie,843,151 COUNTRY MEADOWS BLVD,,WAXAHACHIE,TX,75165,Ellis,151 COUNTRY MEADOWS BLVD WAXAHACHIE TX 75165,-96.8355187,32.4324786
Legend Oaks Healthcare and Rehabilitation West San Antonio,844,222 BERTETTI DR,,SAN ANTONIO,TX,78227,,222 BERTETTI DR SAN ANTONIO TX 78227,-98.65245279999999,29.3994364
Legend Oaks Rehabilitation And Healthcare Of Kyle,845,1640 FAIRWAY,,KYLE,TX,78640,Hays,1640 FAIRWAY KYLE TX 78640,-97.8889559,30.0214087
Leonard Manor,848,902 E HACKBERRY ST,,LEONARD,TX,75452,Fannin,902 E HACKBERRY ST LEONARD TX 75452,-96.2424041,33.3889614
Levelland Nursing and Rehabilitation Center,849,210 WEST AVE,,LEVELLAND,TX,79336,Hockley,210 WEST AVE LEVELLAND TX 79336,-102.3874242,33.5908991
Lexington Medical Lodge,850,2000 W AUDIE MURPHY PKWY,,FARMERSVILLE,TX,75442,Collin,2000 W AUDIE MURPHY PKWY FARMERSVILLE TX 75442,-96.3918485,33.1596483
Lexington Place Nursing And Rehabilitation Center Of Nacogdoches,852,611 SW STALLINGS DR,,NACOGDOCHES,TX,75964,Nacogdoches,611 SW STALLINGS DR NACOGDOCHES TX 75964,-94.6787267,31.5790271
Lexington Place Nursing and Rehabilitation Center Richland Hills,853,7146 BAKER BLVD,,RICHLAND HILLS,TX,76118,Tarrant,7146 BAKER BLVD RICHLAND HILLS TX 76118,-97.2264805,32.8082488
Liberty Dayton Regional Medical Center,854,1353 N TRAVIS ST,,AMES,TX,77575,Liberty,1353 N TRAVIS ST AMES TX 77575,-94.799064,30.068494
Liberty Health Care Center,855,1206 N TRAVIS ST,,LIBERTY,TX,77575,Liberty,1206 N TRAVIS ST LIBERTY TX 77575,-94.7971979,30.0678389
Life Care Center of Haltom,856,2936 MARKUM DR,,FORT WORTH,TX,76117,Tarrant,2936 MARKUM DR FORT WORTH TX 76117,-97.26903689999999,32.7990323
Life Care Center of Plano,857,3800 W PARK BLVD,,PLANO,TX,75075,Collin,3800 W PARK BLVD PLANO TX 75075,-96.7663798,33.02594060000001
Limestone Medical Center,860,701 MCCLINTIC DR,,GROESBECK,TX,76642,Limestone,701 MCCLINTIC DR GROESBECK TX 76642,-96.5311873,31.5327006
Lindale Healthcare Center,861,215 MARGARET ST,,LINDALE,TX,75771,Smith,215 MARGARET ST LINDALE TX 75771,-95.4134682,32.5223494
Lindan Park Rehabilitation And Nursing Center,862,1510 N PLANO RD,,RICHARDSON,TX,75081,Dallas,1510 N PLANO RD RICHARDSON TX 75081,-96.69886059999999,32.966739
"Live Oak Nursing Center, LP",865,2951 HIGHWAY 281,,GEORGE WEST,TX,78022,Live Oak,2951 HIGHWAY 281 GEORGE WEST TX 78022,-98.1228476,28.336585
Llano Nursing and Rehabilitation Center,866,800 W HAYNIE ST,,LLANO,TX,78643,Llano,800 W HAYNIE ST LLANO TX 78643,-98.6845998,30.7516521
Lockney Health and Rehabilitation Center,867,401 N MAIN ST,,LOCKNEY,TX,79241,Floyd,401 N MAIN ST LOCKNEY TX 79241,-101.4420579,34.1278238
Longhorn Village,868,12001 LONGHORN PKWY,,AUSTIN,TX,78732,Travis,12001 LONGHORN PKWY AUSTIN TX 78732,-97.9114024,30.35114429999999
Longmeadow Healthcare Center,870,120 MEADOW VIEW DR,,JUSTIN,TX,76247,Denton,120 MEADOW VIEW DR JUSTIN TX 76247,-97.28776049999999,33.0845368
Longview Hill Nursing and Rehabilitation Center,871,3201 N 4TH ST,,LONGVIEW,TX,75605,Gregg,3201 N 4TH ST LONGVIEW TX 75605,-94.7320779,32.5373416
Los Arcos del Norte Care Center,874,11169 SEAN HAGGERTY,,EL PASO,TX,79934,,11169 SEAN HAGGERTY EL PASO TX 79934,-106.4254043,31.9348731
"Lubbock Health Care Center, LP",875,4120 22ND PL,,LUBBOCK,TX,79410,Lubbock,4120 22ND PL LUBBOCK TX 79410,-101.9023168,33.5750816
Lubbock Hospitality House Nursing and Rehabilitation Center,876,4710 SLIDE RD,,LUBBOCK,TX,79414,Lubbock,4710 SLIDE RD LUBBOCK TX 79414,-101.923129,33.5507709
Lubbock Ltc Nursing And Rehabilitation,877,2400 QUAKER AVE,,LUBBOCK,TX,79410,Lubbock,2400 QUAKER AVE LUBBOCK TX 79410,-101.905503,33.5720779
Lutheran Sunset Ministry,880,1800 W 9TH ST,,CLIFTON,TX,76634,Bosque,1800 W 9TH ST CLIFTON TX 76634,-97.58740739999999,31.7756286
Lynn County Hospital District,881,2600 LOCKWOOD ST,,TAHOKA,TX,79373,Lynn,2600 LOCKWOOD ST TAHOKA TX 79373,-101.8162149,33.1672287
Lynwood Nursing And Rehabilitation,883,803 S ALAMO RD,,LEVELLAND,TX,79336,Hockley,803 S ALAMO RD LEVELLAND TX 79336,-102.3477298,33.5816075
Lytle Nursing Home,884,15366 OAK ST,,LYTLE,TX,78052,Atascosa,15366 OAK ST LYTLE TX 78052,-98.8011808,29.22943
Mabank Nursing Home,885,110 W TROUPE ST,,MABANK,TX,75147,Kaufman,110 W TROUPE ST MABANK TX 75147,-96.10180869999999,32.3688157
Madison Medical Resort,887,5001 OFFICE PARK,,ODESSA,TX,79762,Ector,5001 OFFICE PARK ODESSA TX 79762,-102.3389605,31.8998009
Madison Saint Joseph Health Center,888,100 W CROSS ST,,MADISONVILLE,TX,77864,Madison,100 W CROSS ST MADISONVILLE TX 77864,-95.91044199999999,30.9422912
Madisonville Care Center,889,411 E COLLARD ST,,MADISONVILLE,TX,77864,Madison,411 E COLLARD ST MADISONVILLE TX 77864,-95.9121224,30.954937
"Magnified Health and Rehab of Anderson, LLC",891,1115 ANDERSON ST,,COLLEGE STATION,TX,77840,Brazos,1115 ANDERSON ST COLLEGE STATION TX 77840,-96.3175813,30.6078271
Magnolia Living and Rehabilitation,892,1105 N MAGNOLIA AVE,,LULING,TX,78648,Caldwell,1105 N MAGNOLIA AVE LULING TX 78648,-97.648107,29.6992826
Magnolia Manor,893,4400 GULF AVE,,GROVES,TX,77619,Jefferson,4400 GULF AVE GROVES TX 77619,-93.92477889999999,29.9467646
Magnolia Place,894,510 E BONHAM ST,,JEFFERSON,TX,75657,Marion,510 E BONHAM ST JEFFERSON TX 75657,-94.34382409999999,32.7632535
Magnolia Place Health Care,895,1620 MAGNOLIA ST,,LIBERTY,TX,77575,Liberty,1620 MAGNOLIA ST LIBERTY TX 77575,-94.80111079999999,30.0686211
Magnolia Place Skilled Nursing And Rehab,896,1307 MARTIN LUTHER KING DR,,JEFFERSON,TX,75657,Marion,1307 MARTIN LUTHER KING DR JEFFERSON TX 75657,-94.3593231,32.7729537
"Manor Park, Inc",899,2208 N LOOP 250 W,,MIDLAND,TX,79707,Midland,2208 N LOOP 250 W MIDLAND TX 79707,-102.15312,32.003492
Mansfield Medical Lodge,900,301 N MILLER RD,,MANSFIELD,TX,76063,Tarrant,301 N MILLER RD MANSFIELD TX 76063,-97.0919522,32.5673279
Mansfield Nursing and Rehabilitation Center,901,1402 E BROAD ST,,MANSFIELD,TX,76063,Tarrant,1402 E BROAD ST MANSFIELD TX 76063,-97.12403429999999,32.5656449
Marine Creek Health and Rehabilitation Center,903,3600 ANGLE AVE,,FORT WORTH,TX,76106,Tarrant,3600 ANGLE AVE FORT WORTH TX 76106,-97.368791,32.8092869
Marshall Manor Nursing and Rehabilitation Center,904,1007 S WASHINGTON AVE,,MARSHALL,TX,75670,Harrison,1007 S WASHINGTON AVE MARSHALL TX 75670,-94.3687581,32.5354582
Marshall Manor West,905,207 W MERRITT ST,,MARSHALL,TX,75670,Harrison,207 W MERRITT ST MARSHALL TX 75670,-94.3694306,32.5351771
Mason Creek Transitional Care of Katy,908,21727 PROVINCIAL BLVD,,KATY,TX,77450,Harris,21727 PROVINCIAL BLVD KATY TX 77450,-95.7466446,29.77794119999999
Matagorda House Healthcare Center At The Legacy Campus,910,700 12TH ST,,BAY CITY,TX,77414,Matagorda,700 12TH ST BAY CITY TX 77414,-95.9793205,28.9864858
Matagorda Nursing and Rehabilitation Center,911,4521 AVENUE F,,BAY CITY,TX,77414,Matagorda,4521 AVENUE F BAY CITY TX 77414,-95.9685118,28.9577304
Matlock Place Health and Rehabilitation Center,912,7100 MATLOCK RD,,ARLINGTON,TX,76002,Tarrant,7100 MATLOCK RD ARLINGTON TX 76002,-97.11667469999999,32.6290287
Maverick Nursing and Rehabilitation Center,913,3106 BOB ROGERS DR,,EAGLE PASS,TX,78852,Maverick,3106 BOB ROGERS DR EAGLE PASS TX 78852,-100.4580089,28.7106055
Mcallen Nursing Center,916,600 N CYNTHIA ST,,MCALLEN,TX,78501,Hidalgo,600 N CYNTHIA ST MCALLEN TX 78501,-98.21418129999999,26.2075793
McAllen Transitional Care Center,917,2109 S K ST,,MCALLEN,TX,78503,Hidalgo,2109 S K ST MCALLEN TX 78503,-98.2134143,26.1669246
McCamey Hospital,919,2500 HIGHWAY 305 S,,MCCAMEY,TX,79752,Upton,2500 HIGHWAY 305 S MCCAMEY TX 79752,-102.2102109,31.1144967
McKinney Healthcare and Rehabilitation Center,922,253 ENTERPRISE DR,,MCKINNEY,TX,75069,Collin,253 ENTERPRISE DR MCKINNEY TX 75069,-96.6274468,33.1619888
McLean Care Center,924,605 W 7TH ST,,MCLEAN,TX,79057,Gray,605 W 7TH ST MCLEAN TX 79057,-100.6039955,35.2393478
Meadow Lake Health Center,925,16044 COUNTY ROAD 165,,TYLER,TX,75703,,16044 COUNTY ROAD 165 TYLER TX 75703,-95.3510045,32.2479109
Meadowbrook Care Center,926,632 WINDSOR WAY,,VAN ALSTYNE,TX,75495,Grayson,632 WINDSOR WAY VAN ALSTYNE TX 75495,-96.5843031,33.4232351
Medical Arts Hospital,927,2200 N BRYAN AVE,,LAMESA,TX,79331,Dawson,2200 N BRYAN AVE LAMESA TX 79331,-101.9673069,32.7491971
Medina Regional Hospital,935,3100 AVENUE E,,HONDO,TX,78861,Medina,3100 AVENUE E HONDO TX 78861,-99.1344601,29.3344958
Medina Valley Health and Rehabilitation Center,936,913 US HIGHWAY 90 W,,CASTROVILLE,TX,78009,Medina,913 US HIGHWAY 90 W CASTROVILLE TX 78009,-98.8823749,29.3535469
Memorial City Health and Rehabilitation Center,939,1341 BLALOCK RD,,HOUSTON,TX,77055,Harris,1341 BLALOCK RD HOUSTON TX 77055,-95.5234286,29.7937927
Memorial Hermann Hospital Skilled Nursing Unit,943,6411 FANNIN ST,,HOUSTON,TX,77030,Harris,6411 FANNIN ST HOUSTON TX 77030,-95.39654689999999,29.7141998
Memorial Hospital,948,209 NW 8TH ST,,SEMINOLE,TX,79360,Gaines,209 NW 8TH ST SEMINOLE TX 79360,-102.6549052,32.7218479
Memorial Medical Center,949,815 N VIRGINIA ST,,PORT LAVACA,TX,77979,Calhoun,815 N VIRGINIA ST PORT LAVACA TX 77979,-96.63216349999999,28.620326
Memorial Medical Nursing Center,950,307 W CYPRESS ST,,SAN ANTONIO,TX,78212,Bexar,307 W CYPRESS ST SAN ANTONIO TX 78212,-98.4974097,29.4413873
Memorial Nursing and Rehabilitation Center,951,224 E 2ND ST,,DUMAS,TX,79029,Moore,224 E 2ND ST DUMAS TX 79029,-101.9706511,35.8645507
Memphis Convalescent Center,952,1415 N 18TH ST,,MEMPHIS,TX,79245,Hall,1415 N 18TH ST MEMPHIS TX 79245,-100.5524302,34.739156
Menard Manor,953,100 GAY ST,,MENARD,TX,76859,Menard,100 GAY ST MENARD TX 76859,-99.7843388,30.91643659999999
Meridian Care,955,7181 CRESTWAY RD,,SAN ANTONIO,TX,78239,Bexar,7181 CRESTWAY RD SAN ANTONIO TX 78239,-98.3471198,29.5218006
Meridian Care of Alice,956,219 N KING ST,,ALICE,TX,78332,Jim Wells,219 N KING ST ALICE TX 78332,-98.0758893,27.752477
Meridian Care Of Hebbronville,957,606 W GRUY ST,,HEBBRONVILLE,TX,78361,Jim Hogg,606 W GRUY ST HEBBRONVILLE TX 78361,-98.683962,27.3191532
Meridian Care of Monte Vista,958,616 W RUSSELL PL,,SAN ANTONIO,TX,78212,Bexar,616 W RUSSELL PL SAN ANTONIO TX 78212,-98.4998111,29.4506827
Meridian Of Temple,959,4312 S 31ST ST,,TEMPLE,TX,76502,Bell,4312 S 31ST ST TEMPLE TX 76502,-97.37529169999999,31.0568727
Merkel Nursing Center,960,1704 N 1ST,,MERKEL,TX,79536,Taylor,1704 N 1ST MERKEL TX 79536,-100.021425,32.47210099999999
Mesa Vista Health Center,963,5756 N KNOLL,,SAN ANTONIO,TX,78240,Bexar,5756 N KNOLL SAN ANTONIO TX 78240,-98.6027548,29.5130057
"Mesquite Tree Nursing Center, LP",964,434 PAZA DR,,MESQUITE,TX,75149,Dallas,434 PAZA DR MESQUITE TX 75149,-96.5928127,32.7539635
Methodist Hospital Skilled Nursing Unit,966,6447 MAIN ST,,HOUSTON,TX,77030,Harris,6447 MAIN ST HOUSTON TX 77030,-95.3999679,29.71215369999999
"Metroplex Nursing and Rehabilitation, LP",969,658 SW 3RD ST,,GRAND PRAIRIE,TX,75051,Dallas,658 SW 3RD ST GRAND PRAIRIE TX 75051,-97.00495099999999,32.738146
Mexia LTC Nursing and Rehabilitation,970,601 TERRACE LN,,MEXIA,TX,76667,Limestone,601 TERRACE LN MEXIA TX 76667,-96.49584019999999,31.6887429
Mid Valley Nursing And Rehabilitation,972,601 N MILE 2 W,,MERCEDES,TX,78570,Hidalgo,601 N MILE 2 W MERCEDES TX 78570,-97.9422809,26.156122
Midland Medical Lodge,974,3000 MOCKINGBIRD,,MIDLAND,TX,79705,Midland,3000 MOCKINGBIRD MIDLAND TX 79705,-102.1308592,32.0492807
MIDLOTHIAN HEALTHCARE CENTER,975,900 GEORGE HOPPER RD,,MIDLOTHIAN,TX,76065,Ellis,900 GEORGE HOPPER RD MIDLOTHIAN TX 76065,-96.9832572,32.4739034
Midwestern Healthcare Center,976,601 MIDWESTERN PKWY E,,WICHITA FALLS,TX,76302,Wichita,601 MIDWESTERN PKWY E WICHITA FALLS TX 76302,-98.4761011,33.8753825
Millbrook Healthcare and Rehabilitation Center,977,1850 W PLEASANT RUN RD,,LANCASTER,TX,75146,Dallas,1850 W PLEASANT RUN RD LANCASTER TX 75146,-96.79853399999999,32.603578
Mineola Healthcare Residence,978,716 MIMOSA DR,,MINEOLA,TX,75773,Wood,716 MIMOSA DR MINEOLA TX 75773,-95.4789232,32.6616337
Mineral Wells Nursing and Rehabilitation,979,316 SW 25TH AVE,,MINERAL WELLS,TX,76067,Palo Pinto,316 SW 25TH AVE MINERAL WELLS TX 76067,-98.14738369999999,32.800016
Mira Vista Court,980,7021 BRYANT IRVIN RD,,FORT WORTH,TX,76132,Tarrant,7021 BRYANT IRVIN RD FORT WORTH TX 76132,-97.4270279,32.6478746
Mirador,981,5857 TIMBERGATE DR,,CORPUS CHRISTI,TX,78414,Nueces,5857 TIMBERGATE DR CORPUS CHRISTI TX 78414,-97.38415499999999,27.675358
Mission Care Center,982,6150 SOUTH LOOP E,,HOUSTON,TX,77087,Harris,6150 SOUTH LOOP E HOUSTON TX 77087,-95.31821509999999,29.6941577
Mission Manor Healthcare Residence,983,501 YATES ST,,MOUNT VERNON,TX,75457,Franklin,501 YATES ST MOUNT VERNON TX 75457,-95.2288894,33.1838531
Mission Nursing and Rehabilitation Center,985,1013 S BRYAN RD,,MISSION,TX,78572,Hidalgo,1013 S BRYAN RD MISSION TX 78572,-98.3114895,26.1943117
MISSION VALLEY NURSING AND TRANSITIONAL CARE,988,1200 S BRYAN RD,,MISSION,TX,78572,,1200 S BRYAN RD MISSION TX 78572,-98.31366609999999,26.1925906
Mitchell County Nursing and Rehabilitation Center,990,1941 CHESTNUT ST,,COLORADO CITY,TX,79512,Mitchell,1941 CHESTNUT ST COLORADO CITY TX 79512,-100.8643466,32.4060252
Modern Senior Living,991,3808 S CENTRAL EXPY,,DALLAS,TX,75215,Dallas,3808 S CENTRAL EXPY DALLAS TX 75215,-96.7665857,32.7566355
Monahans Managed Care Center,992,1200 W 15TH ST,,MONAHANS,TX,79756,Ward,1200 W 15TH ST MONAHANS TX 79756,-102.9003578,31.5772564
Monarch Pavilion Rehabilitation,993,6825 HARRY HINES BLVD,,DALLAS,TX,75235,Dallas,6825 HARRY HINES BLVD DALLAS TX 75235,-96.8535964,32.824325
"Monte Siesta Nursing and Rehabilitation, LP",994,4501 DUDMAR DR,,AUSTIN,TX,78735,Travis,4501 DUDMAR DR AUSTIN TX 78735,-97.80488869999999,30.2355992
Monument Hill Nursing And Rehabilitation Center,996,120 STATE LOOP 92,,LA GRANGE,TX,78945,Fayette,120 STATE LOOP 92 LA GRANGE TX 78945,-96.87217419999999,29.8872873
Morningside at The Meadows Health Care,998,2201 ST CLOUD,,SAN ANTONIO,TX,78228,,2201 ST CLOUD SAN ANTONIO TX 78228,-98.54871229999999,29.4752566
Morningside Manor Health Care,999,602 BABCOCK RD,,SAN ANTONIO,TX,78201,Bexar,602 BABCOCK RD SAN ANTONIO TX 78201,-98.54871229999999,29.4764261
Morningside Ministries at the Chandler Estate,1000,1502 HOWARD ST,,SAN ANTONIO,TX,78212,Bexar,1502 HOWARD ST SAN ANTONIO TX 78212,-98.4950513,29.4507622
Mountain View Health And Rehabilitation,1003,1600 MURCHISON DR,,EL PASO,TX,79902,El Paso,1600 MURCHISON DR EL PASO TX 79902,-106.4809423,31.77967139999999
Mountain Villa Skilled Nursing Facility,1005,2729 PORTER AVE,,EL PASO,TX,79930,El Paso,2729 PORTER AVE EL PASO TX 79930,-106.4633636,31.8051891
MRC Creekside,1006,1433 VETERANS MEMORIAL PKWY,,HUNTSVILLE,TX,77340,Walker,1433 VETERANS MEMORIAL PKWY HUNTSVILLE TX 77340,-95.5748145,30.7025536
Muenster Memorial Hospital Swing Bed,1009,605 N MAPLE ST,,MUENSTER,TX,76252,Cooke,605 N MAPLE ST MUENSTER TX 76252,-97.3804421,33.653943
Mulberry Manor,1010,1670 W LINGLEVILLE RD,,STEPHENVILLE,TX,76401,Erath,1670 W LINGLEVILLE RD STEPHENVILLE TX 76401,-98.22821909999999,32.2245906
Muleshoe Area Medical Center,1011,708 S 1ST ST,,MULESHOE,TX,79347,Bailey,708 S 1ST ST MULESHOE TX 79347,-102.7285134,34.2213093
Mullican Care Center,1012,105 N MAIN,,SAVOY,TX,75479,Fannin,105 N MAIN SAVOY TX 75479,-96.36468590000001,33.5995537
Mystic Park Nursing and Rehabilitation Center,1015,8503 MYSTIC PARK,,SAN ANTONIO,TX,78254,Bexar,8503 MYSTIC PARK SAN ANTONIO TX 78254,-98.6438597,29.5221584
Navasota Nursing And Rehabilitation,1020,1405 E WASHINGTON AVE,,NAVASOTA,TX,77868,Grimes,1405 E WASHINGTON AVE NAVASOTA TX 77868,-96.07743459999999,30.3953294
Nazareth Living Care Center,1021,1475 RAYNOLDS ST,,EL PASO,TX,79903,El Paso,1475 RAYNOLDS ST EL PASO TX 79903,-106.4335477,31.7881899
Nesbit Living and Recovery Center,1022,1215 ASHBY ST,,SEGUIN,TX,78155,Guadalupe,1215 ASHBY ST SEGUIN TX 78155,-97.9474534,29.5664827
New Hope Manor,1025,1623 W NEW HOPE DR,,CEDAR PARK,TX,78613,Williamson,1623 W NEW HOPE DR CEDAR PARK TX 78613,-97.85677079999999,30.5273809
Nocona Nursing Home,1029,306 CAROLYN RD,,NOCONA,TX,76255,Montague,306 CAROLYN RD NOCONA TX 76255,-97.73025539999999,33.7799152
"Nolan Nursing and Rehabilitation, LP",1030,705 NE GEORGIA AVE,,SWEETWATER,TX,79556,Nolan,705 NE GEORGIA AVE SWEETWATER TX 79556,-100.3899174,32.4551975
Normandy Terrace Healthcare and Rehabilitation Center,1031,841 RICE RD,,SAN ANTONIO,TX,78220,Bexar,841 RICE RD SAN ANTONIO TX 78220,-98.4039882,29.4096119
NORTH HOUSTON TRANSITIONAL CARE,1032,9814 GRANT RD,,HOUSTON,TX,77070,,9814 GRANT RD HOUSTON TX 77070,-95.56474999999999,29.967757
North Park Health and Rehabilitation Center,1033,1720 N MCDONALD ST,,MC KINNEY,TX,75071,Collin,1720 N MCDONALD ST MC KINNEY TX 75071,-96.61227369999999,33.2226494
"North Pointe Nursing and Rehabilitation, LP",1034,7804 VIRGIL ANTHONY BLVD,,WATAUGA,TX,76148,Tarrant,7804 VIRGIL ANTHONY BLVD WATAUGA TX 76148,-97.25677290000002,32.8877027
Northeast Rehabilitation Center,1038,603 CORINNE DR,,SAN ANTONIO,TX,78218,Bexar,603 CORINNE DR SAN ANTONIO TX 78218,-98.42643299999999,29.4931512
Northern Oaks Living and Rehabilitation Center,1039,2722 OLD ANSON RD,,ABILENE,TX,79603,Taylor,2722 OLD ANSON RD ABILENE TX 79603,-99.74787350000001,32.4840516
Northgate Health and Rehabilitation Center,1040,5757 N KNOLL,,SAN ANTONIO,TX,78240,Bexar,5757 N KNOLL SAN ANTONIO TX 78240,-98.60192169999999,29.5138353
Northgate Plaza Nursing and Rehabilitation Center,1041,2101 W NORTHGATE DR,,IRVING,TX,75062,Dallas,2101 W NORTHGATE DR IRVING TX 75062,-96.9740169,32.8562927
Northwest Health and Rehabilitation Center,1043,17600 CALI DR,,HOUSTON,TX,77090,Harris,17600 CALI DR HOUSTON TX 77090,-95.44314879999999,30.0232714
Oak Grove Nursing Home,1045,6230 WARREN ST,,GROVES,TX,77619,Jefferson,6230 WARREN ST GROVES TX 77619,-93.9007768,29.9339879
"Oak Manor Nursing and Rehabilitation, LP",1046,2901 STERLING HART DR,,COMMERCE,TX,75428,Hunt,2901 STERLING HART DR COMMERCE TX 75428,-95.8949188,33.2307783
Oak Manor Nursing Home,1047,1200 FERGUSON ST,,NACOGDOCHES,TX,75961,Nacogdoches,1200 FERGUSON ST NACOGDOCHES TX 75961,-94.6504678,31.61322149999999
Oak Parks Nursing and Rehabilitation Center,1048,7302 OAK MANOR DR,,SAN ANTONIO,TX,78229,Bexar,7302 OAK MANOR DR SAN ANTONIO TX 78229,-98.5750205,29.5010406
Oak Ridge Manor,1049,2501 MORRIS SHEPPARD DR,,BROWNWOOD,TX,76801,Brown,2501 MORRIS SHEPPARD DR BROWNWOOD TX 76801,-98.9917432,31.6750623
Oak Village Healthcare,1050,204 OAK DR S,,LAKE JACKSON,TX,77566,Brazoria,204 OAK DR S LAKE JACKSON TX 77566,-95.45431570000001,29.0330102
Oakbend Medical Center Skilled Nursing Facility,1051,1705 JACKSON ST,FL 1,RICHMOND,TX,77469,Fort Bend,1705 JACKSON ST RICHMOND TX 77469,-95.770572,29.576525
Oakbrook Healthcare Center,1052,107 STACY DR,,WHITEHOUSE,TX,75791,Smith,107 STACY DR WHITEHOUSE TX 75791,-95.2203874,32.2160833
"Oakland Manor Nursing Center, LP",1054,1400 N MAIN ST,,GIDDINGS,TX,78942,Lee,1400 N MAIN ST GIDDINGS TX 78942,-96.9339545,30.1945656
Oakmont Healthcare and Rehabilitation Center of Katy,1055,1525 TULL DR,,KATY,TX,77449,Harris,1525 TULL DR KATY TX 77449,-95.7424065,29.7902499
Oakmont Healthcare and Rehabilitation of Humble,1056,8450 WILL CLAYTON PKWY,,HUMBLE,TX,77338,Harris,8450 WILL CLAYTON PKWY HUMBLE TX 77338,-95.2572624,29.9780305
Oaks At White Settlement,1057,8001 WESTERN HILLS BLVD,,FORT WORTH,TX,76108,Tarrant,8001 WESTERN HILLS BLVD FORT WORTH TX 76108,-97.4560109,32.7395376
Oaks Nursing Center,1058,507 W JACKSON ST,,BURNET,TX,78611,Burnet,507 W JACKSON ST BURNET TX 78611,-98.23338919999999,30.755382
Oakwood Manor Nursing Home,1060,225 S MAIN ST,,VIDOR,TX,77662,Orange,225 S MAIN ST VIDOR TX 77662,-94.0108485,30.1228457
"Oakwood Nursing and Rehabilitation, LP",1061,301 W RANDOL MILL RD,,ARLINGTON,TX,76011,Tarrant,301 W RANDOL MILL RD ARLINGTON TX 76011,-97.109484,32.7507361
Oasis Nursing and Rehabilitation Center,1062,9001 N LOOP DR,,EL PASO,TX,79907,El Paso,9001 N LOOP DR EL PASO TX 79907,-106.3159822,31.704323
Ochiltree General Hospital,1063,3101 GARRETT DR,,PERRYTON,TX,79070,Ochiltree,3101 GARRETT DR PERRYTON TX 79070,-100.7987427,36.37002590000001
Odd Fellow and Rebekah Nursing and Rehab Center,1064,2300 S OAK GROVE RD,,ENNIS,TX,75119,Ellis,2300 S OAK GROVE RD ENNIS TX 75119,-96.6110424,32.3117663
One Heartland San Antonio Wellness And Rehabilitation,1068,1 HEARTLAND DR,,SAN ANTONIO,TX,78247,Bexar,1 HEARTLAND DR SAN ANTONIO TX 78247,-98.3799232,29.5877549
Onion Creek Nursing And Rehabilitation Center,1069,1700 ONION CREEK PKWY,,AUSTIN,TX,78748,Travis,1700 ONION CREEK PKWY AUSTIN TX 78748,-97.80289239999999,30.1392421
OnPointe Transitional Care at Texas Health Arlington Memorial Hospital,1070,800 W RANDOL MILL RD,6TH FLOOR SOUTH TOWER,ARLINGTON,TX,76012,,800 W RANDOL MILL RD ARLINGTON TX 76012,-97.1159177,32.7490985
OnPointe Transitional Care at Texas Health Presbyterian Hospital Dallas,1071,8200 WALNUT HILL LN,,DALLAS,TX,75231,Dallas,8200 WALNUT HILL LN DALLAS TX 75231,-96.76320079999999,32.8794383
Otto Kaiser Memorial Hospital,1073,3349 S HIGHWAY 181,,KENEDY,TX,78119,Karnes,3349 S HIGHWAY 181 KENEDY TX 78119,-97.87827,28.8507318
Overton Healthcare Center,1074,1110 STATE HIGHWAY 135 S,,OVERTON,TX,75684,Rusk,1110 STATE HIGHWAY 135 S OVERTON TX 75684,-94.98140459999999,32.2658879
Palacios Community Medical Center,1077,311 GREEN AVE,,PALACIOS,TX,77465,Matagorda,311 GREEN AVE PALACIOS TX 77465,-96.2142652,28.716864
Palestine Healthcare Center,1079,1816 TILE FACTORY RD,,PALESTINE,TX,75803,Anderson,1816 TILE FACTORY RD PALESTINE TX 75803,-95.6757689,31.732053
Palma Real Nursing Center,1081,1220 LOOP 459,,MATHIS,TX,78368,San Patricio,1220 LOOP 459 MATHIS TX 78368,-97.81398,28.091746
Palo Pinto General Hospital,1084,400 SW 25TH AVE,,MINERAL WELLS,TX,76067,Palo Pinto,400 SW 25TH AVE MINERAL WELLS TX 76067,-98.1454632,32.7990466
Palo Pinto Nursing Center and Rehabilitation,1085,200 SW 25TH AVE,,MINERAL WELLS,TX,76067,Palo Pinto,200 SW 25TH AVE MINERAL WELLS TX 76067,-98.1454205,32.8025082
Palomino Place,1086,3160 GUS THOMASSON RD,,MESQUITE,TX,75150,,3160 GUS THOMASSON RD MESQUITE TX 75150,-96.63324,32.8073125
Pampa Nursing Center,1088,1321 W KENTUCKY AVE,,PAMPA,TX,79065,Gray,1321 W KENTUCKY AVE PAMPA TX 79065,-100.977892,35.5478674
