PID,M1,M2,M3,M4,M5,M6,M7,M8,M9,M10,M11,M12,ProviderName,ProviderPracticeAddress1,ProviderPracticeAddress2,ProviderPracticeCity,ProviderPracticeStateCode,ProviderPracticeZipCode,County,zip,lat,lng,city,state_id,state_name,zcta,parent_zcta,population,density,county_fips,county_name,county_weights,county_names_all,county_fips_all,imprecise,military,timezone
6,11,5,7,6,4,3,3,5,6,5,3,11,Accel at College Station,1500 MEDICAL AVE,,COLLEGE STATION,TX,77845,,77845.0,30.56255,-96.27564,College Station,TX,Texas,True,,63078.0,128.0,48041.0,Brazos,{'48041':100},Brazos,48041,False,False,America/Chicago
8,20,12,14,12,16,17,15,8,6,6,4,7,Accel at Willow Bend,2620 COMMUNICATIONS PKWY,,PLANO,TX,75093,Collin,75093.0,33.0355,-96.81001,Plano,TX,Texas,True,,47411.0,1291.2,48085.0,Collin,"{'48085':93.14,'48121':6.86}",Collin|Denton,48085|48121,False,False,America/Chicago
9,10,10,15,12,11,11,12,7,10,6,10,6,Adora Midtown Park,8130 MEADOW RD,,DALLAS,TX,75231,,75231.0,32.87767,-96.74979,Dallas,TX,Texas,True,,41072.0,2537.8,48113.0,Dallas,{'48113':100},Dallas,48113,False,False,America/Chicago
10,2,0,1,0,1,0,0,0,0,0,0,0,Advance Healthcare Solutions,4863 KEMP BLVD,,WICHITA FALLS,TX,76308,Wichita,76308.0,33.85238,-98.54057,Wichita Falls,TX,Texas,True,,19092.0,850.8,48485.0,Wichita,"{'48009':5.69,'48485':94.31}",Wichita|Archer,48485|48009,False,False,America/Chicago
11,4,6,5,6,3,4,1,1,0,0,0,0,Advanced Health and Rehabilitation Center of Garland,1201 COLONEL DR,,GARLAND,TX,75043,Dallas,75043.0,32.85707,-96.57941,Garland,TX,Texas,True,,61440.0,1541.0,48113.0,Dallas,{'48113':100},Dallas,48113,False,False,America/Chicago
12,3,3,5,4,3,2,3,4,1,1,2,2,Advanced Rehab and Healthcare,8221 PALISADES DR,,LIVE OAK,TX,78233,Bexar,78233.0,29.55554,-98.36174,San Antonio,TX,Texas,True,,48507.0,1284.1,48029.0,Bexar,{'48029':100},Bexar,48029,False,False,America/Chicago
13,4,7,1,4,1,2,2,2,0,1,0,4,Advanced Rehab and Healthcare of Athens,121 COMMONS DR,,ATHENS,TX,75751,Henderson,75751.0,32.09642,-95.9083,Athens,TX,Texas,True,,16855.0,41.4,48213.0,Henderson,"{'48001':1.53,'48213':98.47}",Henderson|Anderson,48213|48001,False,False,America/Chicago
14,3,8,9,5,4,9,4,5,1,2,4,3,Advanced Rehab of Wichita Falls,4810 KEMP BLVD,,WICHITA FALLS,TX,76308,Wichita,76308.0,33.85238,-98.54057,Wichita Falls,TX,Texas,True,,19092.0,850.8,48485.0,Wichita,"{'48009':5.69,'48485':94.31}",Wichita|Archer,48485|48009,False,False,America/Chicago
15,1,1,3,3,4,4,1,3,6,5,3,4,Advanced Rehabilitation and Healthcare of Bowie,700 W US HIGHWAY 287 S,,BOWIE,TX,76230,Montague,76230.0,33.51993,-97.95469,Bowie,TX,Texas,True,,9762.0,9.9,48337.0,Montague,"{'48077':1.46,'48237':2.62,'48337':95.92}",Montague|Jack|Clay,48337|48237|48077,False,False,America/Chicago
16,0,0,0,0,0,0,1,1,1,1,0,0,ADVANCED REHABILITATION AND HEALTHCARE OF LIVE OAK,8221 PALISADES DR,,LIVE OAK,TX,78233,,78233.0,29.55554,-98.36174,San Antonio,TX,Texas,True,,48507.0,1284.1,48029.0,Bexar,{'48029':100},Bexar,48029,False,False,America/Chicago
17,14,14,12,7,8,15,11,13,7,10,6,7,Adventhealth Care Center Burleson,301 HUGULEY BLVD,,BURLESON,TX,76028,Johnson,76028.0,32.52605,-97.30317,Burleson,TX,Texas,True,,69413.0,299.1,48251.0,Johnson,"{'48251':70.93,'48439':29.07}",Johnson|Tarrant,48251|48439,False,False,America/Chicago
18,1,0,3,3,6,6,5,6,4,5,2,0,Afton Oaks Healthcare And Rehabilitation Center,7514 KINGSLEY ST,,HOUSTON,TX,77087,Harris,77087.0,29.686120000000006,-95.30343,Houston,TX,Texas,True,,36869.0,2113.2,48201.0,Harris,{'48201':100},Harris,48201,False,False,America/Chicago
19,2,3,1,5,2,1,4,3,3,1,3,5,Alameda Oaks Nursing Center,1101 S ALAMEDA ST,,CORPUS CHRISTI,TX,78404,Nueces,78404.0,27.76805,-97.39899,Corpus Christi,TX,Texas,True,,18376.0,2142.0,48355.0,Nueces,{'48355':100},Nueces,48355,False,False,America/Chicago
20,2,1,1,3,2,3,4,0,4,6,1,3,Alamo Heights Health and Rehabilitation Center,8223 BROADWAY ST,,SAN ANTONIO,TX,78209,Bexar,78209.0,29.48906,-98.45671,San Antonio,TX,Texas,True,,42045.0,1485.7,48029.0,Bexar,{'48029':100},Bexar,48029,False,False,America/Chicago
21,0,1,0,1,0,0,0,2,1,0,1,0,Alfredo Gonzalez Texas State Veterans Home,301 E YUMA AVE,,MCALLEN,TX,78503,Hidalgo,78503.0,26.16531,-98.24764,Mcallen,TX,Texas,True,,22034.0,494.1,48215.0,Hidalgo,{'48215':100},Hidalgo,48215,False,False,America/Chicago
22,9,7,9,9,12,12,12,14,11,10,11,10,ALLEGIANT WELLNESS AND REHAB,724 W RENDON CROWLEY RD,,FORT WORTH,TX,76036,,76036.0,32.577020000000005,-97.41283,Crowley,TX,Texas,True,,25597.0,187.6,48439.0,Tarrant,"{'48251':11.95,'48439':88.05}",Tarrant|Johnson,48439|48251,False,False,America/Chicago
23,4,4,2,2,1,4,1,2,1,2,1,2,Alpine Terrace,746 ALPINE DR,,KERRVILLE,TX,78028,Kerr,78028.0,30.03422,-99.15819,Kerrville,TX,Texas,True,,40447.0,57.9,48265.0,Kerr,"{'48171':1.96,'48265':98.04}",Kerr|Gillespie,48265|48171,False,False,America/Chicago
25,8,9,20,9,10,4,5,10,5,9,13,13,Alta Vista Rehabilitation and Healthcare,510 PAREDES LINE RD,,BROWNSVILLE,TX,78521,Cameron,78521.0,25.95038,-97.32167,Brownsville,TX,Texas,True,,92108.0,389.0,48061.0,Cameron,{'48061':100},Cameron,48061,False,False,America/Chicago
27,1,0,1,0,2,0,1,1,1,0,1,0,Alvarado Meadows Nursing and Rehabilitation Center,101 N PARKWAY DR,,ALVARADO,TX,76009,Johnson,76009.0,32.41579,-97.20169,Alvarado,TX,Texas,True,,21041.0,77.6,48251.0,Johnson,{'48251':100},Johnson,48251,False,False,America/Chicago
28,7,4,7,7,3,0,5,5,3,8,0,3,Amarillo Center for Skilled Care,6641 W AMARILLO BLVD,,AMARILLO,TX,79106,Potter,79106.0,35.20318,-101.89519,Amarillo,TX,Texas,True,,27015.0,1152.4,48375.0,Potter,"{'48375':87.85,'48381':12.15}",Potter|Randall,48375|48381,False,False,America/Chicago
29,0,0,0,1,2,1,1,2,1,1,1,1,Ambrosio Guillen Texas State Veterans Home,9650 KENWORTHY ST,,EL PASO,TX,79924,El Paso,79924.0,31.90245,-106.41325,El Paso,TX,Texas,True,,59729.0,1862.7,48141.0,El Paso,{'48141':100},El Paso,48141,False,False,America/Denver
31,5,7,5,8,3,4,0,2,2,3,9,6,"Amistad Nursing Home and Rehabilitation Center, LLC",200 RIVERSIDE DR,,UVALDE,TX,78801,Uvalde,78801.0,29.35664,-99.87147,Uvalde,TX,Texas,True,,22647.0,10.3,48463.0,Uvalde,{'48463':100},Uvalde,48463,False,False,America/Chicago
33,1,1,1,2,0,1,0,0,0,0,0,1,Anderson Nursing Center,520 BRADBURN RD,,GRAND SALINE,TX,75140,Van Zandt,75140.0,32.64689,-95.69144,Grand Saline,TX,Texas,True,,7290.0,23.9,48467.0,Van Zandt,{'48467':100},Van Zandt,48467,False,False,America/Chicago
35,0,0,0,0,0,3,1,0,0,0,0,0,Anson General Hospital,101 AVENUE J,,ANSON,TX,79501,Jones,79501.0,32.74484,-99.90508,Anson,TX,Texas,True,,2710.0,6.8,48253.0,Jones,{'48253':100},Jones,48253,False,False,America/Chicago
37,0,0,0,0,1,0,0,0,0,0,1,0,Apex Secure Care Brownfield,1101 E LAKE ST,,BROWNFIELD,TX,79316,Terry,79316.0,33.14437,-102.31614,Brownfield,TX,Texas,True,,11333.0,9.5,48445.0,Terry,{'48445':100},Terry,48445,False,False,America/Chicago
38,0,0,0,0,0,0,0,2,1,0,0,0,Arbor Grace Of Kilgore,2700 S HENDERSON BLVD,,KILGORE,TX,75662,Gregg,75662.0,32.383990000000004,-94.87015,Kilgore,TX,Texas,True,,25702.0,74.3,48183.0,Gregg,"{'48183':72.11,'48401':26.09,'48423':1.79}",Gregg|Rusk|Smith,48183|48401|48423,False,False,America/Chicago
41,1,0,0,0,0,0,0,1,1,0,0,4,Arbor Grace Wellness Center,1241 E MARSHALL HOWARD BLVD,,LITTLEFIELD,TX,79339,Lamb,79339.0,33.88987,-102.33544,Littlefield,TX,Texas,True,,6658.0,10.1,48279.0,Lamb,"{'48219':1.78,'48279':98.22}",Lamb|Hockley,48279|48219,False,False,America/Chicago
42,1,0,1,1,1,2,1,3,1,1,2,2,Arbor Terrace Healthcare Center,609 RIO CONCHO DR,,SAN ANGELO,TX,76903,Tom Green,76903.0,31.484820000000006,-100.43723,San Angelo,TX,Texas,True,,31749.0,462.7,48451.0,Tom Green,{'48451':100},Tom Green,48451,False,False,America/Chicago
43,2,1,1,0,1,0,0,0,0,0,0,1,Arboretum Nursing and Rehabilitation Center of Winnie,1215 STATE HIGHWAY 124,,WINNIE,TX,77665,Chambers,77665.0,29.81687,-94.41658,Winnie,TX,Texas,True,,6236.0,18.5,48071.0,Chambers,"{'48071':82.78,'48245':17.22}",Chambers|Jefferson,48071|48245,False,False,America/Chicago
45,15,10,10,12,13,14,10,11,6,5,4,5,Arbrook Plaza,401 W ARBROOK BLVD,,ARLINGTON,TX,76014,Tarrant,76014.0,32.69202,-97.08794,Arlington,TX,Texas,True,,36156.0,2284.7,48439.0,Tarrant,{'48439':100},Tarrant,48439,False,False,America/Chicago
46,0,0,0,0,0,0,0,0,0,0,0,1,Archer City Nursing Center,201 E CHESTNUT ST,,ARCHER CITY,TX,76351,Archer,76351.0,33.568909999999995,-98.67458,Archer City,TX,Texas,True,,2047.0,4.1,48009.0,Archer,{'48009':100},Archer,48009,False,False,America/Chicago
47,1,1,1,1,5,2,2,2,1,2,1,1,Arlington Heights Health and Rehabilitation Center,4825 WELLESLEY AVE,,FORT WORTH,TX,76107,Tarrant,76107.0,32.74171,-97.38196,Fort Worth,TX,Texas,True,,29851.0,931.1,48439.0,Tarrant,{'48439':100},Tarrant,48439,False,False,America/Chicago
48,0,0,0,0,2,0,1,2,3,2,1,1,Arlington Residence and Rehabilitation Center,405 DUNCAN PERRY RD,,ARLINGTON,TX,76011,Tarrant,76011.0,32.75425,-97.08254,Arlington,TX,Texas,True,,22640.0,1038.9,48439.0,Tarrant,{'48439':100},Tarrant,48439,False,False,America/Chicago
49,7,5,4,7,2,6,3,5,1,2,1,2,Arlington Villa Nursing Retirement Center,2601 W RANDOL MILL RD,,ARLINGTON,TX,76012,Tarrant,76012.0,32.75461,-97.13902,Arlington,TX,Texas,True,,26919.0,1214.1,48439.0,Tarrant,{'48439':100},Tarrant,48439,False,False,America/Chicago
50,0,0,0,0,2,2,1,0,0,2,0,0,Army Residence Community Health Care Center,7400 CRESTWAY RD,,SAN ANTONIO,TX,78239,Bexar,78239.0,29.5168,-98.363,San Antonio,TX,Texas,True,,29255.0,1670.8,48029.0,Bexar,{'48029':100},Bexar,48029,False,False,America/Chicago
52,5,3,4,1,5,3,4,4,7,6,6,3,Ashford Gardens,7210 NORTHLINE DR,,HOUSTON,TX,77076,Harris,77076.0,29.85962,-95.38351,Houston,TX,Texas,True,,34985.0,2734.1,48201.0,Harris,{'48201':100},Harris,48201,False,False,America/Chicago
53,0,0,1,0,2,0,0,0,0,0,0,1,Ashford Hall,2021 SHOAF DR,,IRVING,TX,75061,Dallas,75061.0,32.82602,-96.96544,Irving,TX,Texas,True,,54862.0,1783.8,48113.0,Dallas,{'48113':100},Dallas,48113,False,False,America/Chicago
54,4,4,7,2,2,4,4,6,2,3,5,5,Ashton Medical Lodge,801 S LOOP 250 W,,MIDLAND,TX,79703,,79703.0,31.97945,-102.13231,Midland,TX,Texas,True,,23111.0,1187.6,48329.0,Midland,{'48329':100},Midland,48329,False,False,America/Chicago
55,5,4,4,4,3,2,2,2,2,2,1,0,Ashton Park Care Center,210 GULF FWY,,TEXAS CITY,TX,77591,Galveston,77591.0,29.39941,-94.99751,Texas City,TX,Texas,True,,14447.0,469.5,48167.0,Galveston,{'48167':100},Galveston,48167,False,False,America/Chicago
56,0,0,0,0,2,1,1,1,0,0,0,0,Athens Healthcare and Rehabilitation,305 S PALESTINE ST,,ATHENS,TX,75751,Henderson,75751.0,32.09642,-95.9083,Athens,TX,Texas,True,,16855.0,41.4,48213.0,Henderson,"{'48001':1.53,'48213':98.47}",Henderson|Anderson,48213|48001,False,False,America/Chicago
59,4,2,1,0,1,1,0,1,1,0,0,0,Austin Healthcare And Rehabilitation,3509 ROGGE LN,,AUSTIN,TX,78723,Travis,78723.0,30.30427,-97.6857,Austin,TX,Texas,True,,34569.0,1575.7,48453.0,Travis,{'48453':100},Travis,48453,False,False,America/Chicago
60,3,1,2,0,3,0,3,1,3,2,2,0,Austin Retirement and Nursing Center,6909 BURNET LN,,AUSTIN,TX,78757,Travis,78757.0,30.35158,-97.73252,Austin,TX,Texas,True,,24823.0,1673.7,48453.0,Travis,{'48453':100},Travis,48453,False,False,America/Chicago
61,6,4,4,2,2,2,2,2,4,1,3,1,AUSTIN WELLNESS AND REHABILITATION,11406 RUSTIC ROCK DR,,AUSTIN,TX,78750,Travis,78750.0,30.41828,-97.80246,Austin,TX,Texas,True,,30847.0,772.0,48453.0,Travis,"{'48453':54.01,'48491':45.99}",Travis|Williamson,48453|48491,False,False,America/Chicago
64,0,2,4,4,5,8,4,3,2,0,3,2,Autumn Leaves,1010 EMERALD ISLE DR,,DALLAS,TX,75218,Dallas,75218.0,32.84154,-96.70236,Dallas,TX,Texas,True,,21576.0,1197.1,48113.0,Dallas,{'48113':100},Dallas,48113,False,False,America/Chicago
65,1,1,1,5,3,5,2,1,1,5,2,1,Autumn Leaves Nursing and Rehabilitation,321 KILGORE DR,,HENDERSON,TX,75652,Rusk,75652.0,32.229890000000005,-94.73272,Henderson,TX,Texas,True,,16946.0,36.6,48401.0,Rusk,{'48401':100},Rusk,48401,False,False,America/Chicago
66,0,0,0,1,0,0,0,0,0,0,0,0,Autumn Winds,3301 FARM RD 3009,,SCHERTZ,TX,78154,Guadalupe,78154.0,29.54622,-98.26628,Schertz,TX,Texas,True,,40085.0,356.4,48187.0,Guadalupe,"{'48029':18.74,'48091':0.37,'48187':80.89}",Guadalupe|Bexar|Comal,48187|48029|48091,False,False,America/Chicago
67,1,0,1,1,0,0,2,1,1,0,2,1,Avalon Place Kirbyville,700 N HERNDON AVE,,KIRBYVILLE,TX,75956,Jasper,75956.0,30.67771,-93.97824,Kirbyville,TX,Texas,True,,8510.0,12.1,48241.0,Jasper,"{'48241':91.89,'48351':8.11}",Jasper|Newton,48241|48351,False,False,America/Chicago
68,2,1,4,3,1,3,11,5,1,4,4,1,Avalon Place Trinity,808 S ROBB ST,,TRINITY,TX,75862,Trinity,75862.0,30.959840000000003,-95.32384,Trinity,TX,Texas,True,,10044.0,15.8,48455.0,Trinity,"{'48455':95.92,'48471':4.08}",Trinity|Walker,48455|48471,False,False,America/Chicago
69,0,1,2,4,1,3,3,1,3,0,2,0,Avalon Place Wharton,1405 VALHALLA DR,,WHARTON,TX,77488,Wharton,77488.0,29.30682,-96.09125,Wharton,TX,Texas,True,,14533.0,25.2,48481.0,Wharton,{'48481':100},Wharton,48481,False,False,America/Chicago
70,1,0,0,1,2,1,3,0,0,0,0,0,Avante Rehabilitation and Care Center,225 N SOWERS RD,,IRVING,TX,75061,Dallas,75061.0,32.82602,-96.96544,Irving,TX,Texas,True,,54862.0,1783.8,48113.0,Dallas,{'48113':100},Dallas,48113,False,False,America/Chicago
72,1,1,0,5,3,3,3,4,0,1,1,0,Azalea Trail Nursing and Rehabilitation Center,411 SPRINGCREEK RD,,GRAND SALINE,TX,75140,Van Zandt,75140.0,32.64689,-95.69144,Grand Saline,TX,Texas,True,,7290.0,23.9,48467.0,Van Zandt,{'48467':100},Van Zandt,48467,False,False,America/Chicago
73,4,1,4,3,5,2,4,3,1,1,2,1,Azle Manor Health Care and Rehabilitation,721 DUNAWAY LN,,AZLE,TX,76020,Tarrant,76020.0,32.900040000000004,-97.56544,Azle,TX,Texas,True,,28207.0,159.5,48439.0,Tarrant,"{'48367':40.75,'48439':56.76,'48497':2.49}",Tarrant|Parker|Wise,48439|48367|48497,False,False,America/Chicago
74,0,0,1,1,0,2,0,0,0,0,0,0,Balch Springs Health and Rehabilitation,4200 SHEPHERD LN,,MESQUITE,TX,75180,Dallas,75180.0,32.71894,-96.61839,Balch Springs,TX,Texas,True,,23711.0,1160.4,48113.0,Dallas,{'48113':100},Dallas,48113,False,False,America/Chicago
75,0,1,0,1,0,0,0,1,0,1,1,1,Ballinger Healthcare and Rehabilitation Center,2001 N 6TH ST,,BALLINGER,TX,76821,Runnels,76821.0,31.7387,-99.93626,Ballinger,TX,Texas,True,,4578.0,6.2,48399.0,Runnels,{'48399':100},Runnels,48399,False,False,America/Chicago
77,1,0,1,0,1,0,2,1,2,2,1,0,Bandera Nursing and Rehabilitation Center,222 FM 1077,,BANDERA,TX,78003,Bandera,78003.0,29.70959,-99.09413,Bandera,TX,Texas,True,,9539.0,14.9,48019.0,Bandera,"{'48019':97.54,'48325':2.46}",Bandera|Medina,48019|48325,False,False,America/Chicago
78,1,0,0,0,0,0,0,0,1,0,2,0,Bangs Nursing and Rehabilitation Center,1105 E FITZGERALD ST,,BANGS,TX,76823,Brown,76823.0,31.701190000000004,-99.15992,Bangs,TX,Texas,True,,2840.0,10.1,48049.0,Brown,"{'48049':98.74,'48083':1.26}",Brown|Coleman,48049|48083,False,False,America/Chicago
80,8,4,2,4,5,4,3,6,3,3,1,3,Bastrop Lost Pines Nursing and Rehabilitation Center,430 OLD AUSTIN HWY,,BASTROP,TX,78602,Bastrop,78602.0,30.12383,-97.3284,Bastrop,TX,Texas,True,,27958.0,50.2,48021.0,Bastrop,{'48021':100},Bastrop,48021,False,False,America/Chicago
81,1,0,2,1,0,3,3,2,3,2,0,2,Bastrop Nursing Center,400 OLD AUSTIN HWY,,BASTROP,TX,78602,Bastrop,78602.0,30.12383,-97.3284,Bastrop,TX,Texas,True,,27958.0,50.2,48021.0,Bastrop,{'48021':100},Bastrop,48021,False,False,America/Chicago
82,4,1,3,1,1,1,1,3,0,3,3,1,Bay Villa Healthcare Center,1800 13TH ST,,BAY CITY,TX,77414,Matagorda,77414.0,28.899590000000003,-95.88091,Bay City,TX,Texas,True,,23989.0,17.2,48321.0,Matagorda,{'48321':100},Matagorda,48321,False,False,America/Chicago
83,14,11,21,15,14,13,18,15,8,6,7,5,Baybrooke Village Care and Rehabilitation Center,8300 ELDORADO PKWY,,MCKINNEY,TX,75070,Collin,75070.0,33.17311,-96.69773,Mckinney,TX,Texas,True,,98219.0,1208.3,48085.0,Collin,{'48085':100},Collin,48085,False,False,America/Chicago
84,6,2,0,3,2,0,0,2,1,0,0,0,Baylor Scott And White Continuing Care Hospital,546 N KEGLEY RD,,TEMPLE,TX,76502,Bell,76502.0,31.09622,-97.41034,Temple,TX,Texas,True,,40622.0,193.5,48027.0,Bell,{'48027':100},Bell,48027,False,False,America/Chicago
90,4,4,6,6,4,3,4,5,4,4,2,3,Bayou Pines Care Center,4905 FLEMING ST,,LA MARQUE,TX,77568,Galveston,77568.0,29.36383,-94.97975,La Marque,TX,Texas,True,,15571.0,438.9,48167.0,Galveston,{'48167':100},Galveston,48167,False,False,America/Chicago
92,18,14,17,18,30,11,13,17,17,20,24,23,Baywind Village Skilled Nursing and Rehabilitation,411 ALABAMA AVE,,LEAGUE CITY,TX,77573,Galveston,77573.0,29.50205,-95.08652,League City,TX,Texas,True,,86926.0,916.9,48167.0,Galveston,{'48167':100},Galveston,48167,False,False,America/Chicago
93,2,5,2,2,5,2,1,1,2,2,2,4,Baywood Crossing Rehabilitation and Healthcare Center,5020 SPACE CENTER BLVD,,PASADENA,TX,77505,Harris,77505.0,29.64608,-95.13826,Pasadena,TX,Texas,True,,24022.0,980.0,48201.0,Harris,{'48201':100},Harris,48201,False,False,America/Chicago
94,1,8,4,9,9,15,6,11,5,4,4,3,Beacon Harbor Healthcare and Rehabilitation,6700 HERITAGE PKWY,,ROCKWALL,TX,75087,Rockwall,75087.0,32.941720000000004,-96.44993,Rockwall,TX,Texas,True,,33638.0,415.1,48397.0,Rockwall,"{'48085':0.58,'48397':99.42}",Rockwall|Collin,48397|48085,False,False,America/Chicago
95,15,9,15,9,14,7,10,16,7,12,8,7,Beacon Hill,3515 S PARK AVE,,DENISON,TX,75020,Grayson,75020.0,33.77167,-96.60413,Denison,TX,Texas,True,,22487.0,135.0,48181.0,Grayson,{'48181':100},Grayson,48181,False,False,America/Chicago
96,7,2,1,2,6,6,1,5,3,5,2,4,Beaumont Health Care Center,795 LINDBERGH DR,,BEAUMONT,TX,77707,Jefferson,77707.0,30.05295,-94.17654,Beaumont,TX,Texas,True,,18609.0,446.2,48245.0,Jefferson,{'48245':100},Jefferson,48245,False,False,America/Chicago
97,0,0,0,1,0,1,1,1,0,0,0,0,Beaumont Nursing and Rehabilitation,1175 DENTON ST,,BEAUMONT,TX,77707,Jefferson,77707.0,30.05295,-94.17654,Beaumont,TX,Texas,True,,18609.0,446.2,48245.0,Jefferson,{'48245':100},Jefferson,48245,False,False,America/Chicago
98,5,6,5,4,1,3,3,4,2,1,1,0,Bedford Wellness And Rehabilitation,2001 FOREST RIDGE DR,,BEDFORD,TX,76021,Tarrant,76021.0,32.85231,-97.13119,Bedford,TX,Texas,True,,35741.0,1793.8,48439.0,Tarrant,{'48439':100},Tarrant,48439,False,False,America/Chicago
99,6,2,3,2,1,1,4,3,3,4,3,3,Beechnut Manor,12777 BEECHNUT ST,,HOUSTON,TX,77072,Harris,77072.0,29.69962,-95.58504,Houston,TX,Texas,True,,61818.0,2971.8,48201.0,Harris,{'48201':100},Harris,48201,False,False,America/Chicago
100,14,8,11,3,5,4,8,5,7,6,5,10,Bel Air at Teravista,4105 TERAVISTA CLUB DR,,ROUND ROCK,TX,78665,Williamson,78665.0,30.54489,-97.64379,Round Rock,TX,Texas,True,,48362.0,740.7,48491.0,Williamson,{'48491':100},Williamson,48491,False,False,America/Chicago
104,1,1,2,0,0,0,0,0,0,0,0,0,Bellville Medical Center,44 N CUMMINGS ST,,BELLVILLE,TX,77418,Austin,77418.0,29.978790000000004,-96.25057,Bellville,TX,Texas,True,,10381.0,19.5,48015.0,Austin,{'48015':100},Austin,48015,False,False,America/Chicago
105,5,6,9,9,9,8,14,12,10,7,7,4,Belterra Health And Rehabilitation Center,2170 N LAKE FOREST DR,,MCKINNEY,TX,75071,Collin,75071.0,33.24664,-96.62898,Mckinney,TX,Texas,True,,52939.0,176.8,48085.0,Collin,{'48085':100},Collin,48085,False,False,America/Chicago
107,1,0,0,1,0,0,0,0,0,0,0,0,Benbrook Nursing and Rehabilitation Center,1000 MCKINLEY ST,,BENBROOK,TX,76126,Tarrant,76126.0,32.63383,-97.51234,Fort Worth,TX,Texas,True,,22825.0,117.8,48439.0,Tarrant,"{'48367':3.92,'48439':96.08}",Tarrant|Parker,48439|48367,False,False,America/Chicago
108,0,0,0,0,0,1,0,0,1,0,0,0,Bertram Nursing and Rehab Center,540 E STATE HIGHWAY 29,,BERTRAM,TX,78605,Burnet,78605.0,30.782190000000003,-98.04562,Bertram,TX,Texas,True,,6110.0,11.7,48053.0,Burnet,{'48053':100},Burnet,48053,False,False,America/Chicago
109,2,0,0,1,0,1,0,0,0,0,1,1,Big Bend Regional Medical Center,2600 N STATE HIGHWAY 118,,ALPINE,TX,79830,Brewster,79830.0,29.80008,-103.22466,Alpine,TX,Texas,True,,7883.0,1.5,48043.0,Brewster,{'48043':100},Brewster,48043,False,False,America/Chicago
111,1,0,0,1,1,2,1,1,0,1,4,0,Big Spring Center For Skilled Care,3701 WASSON RD,,BIG SPRING,TX,79720,Howard,79720.0,32.253640000000004,-101.47291,Big Spring,TX,Texas,True,,35357.0,14.3,48227.0,Howard,"{'48033':0.14,'48173':0.72,'48227':99.15}",Howard|Glasscock|Borden,48227|48173|48033,False,False,America/Chicago
112,0,0,0,0,0,0,2,0,1,0,0,1,"Birchwood Nursing and Rehabilitation, LP",110 HIGHWAY 64 W,,COOPER,TX,75432,Delta,75432.0,33.39603,-95.67444,Cooper,TX,Texas,True,,3509.0,12.1,48119.0,Delta,{'48119':100},Delta,48119,False,False,America/Chicago
114,3,3,4,7,3,2,3,7,3,4,4,3,Bishop Davies Nursing Center,2712 HURSTVIEW DR,,HURST,TX,76054,Tarrant,76054.0,32.85918,-97.17782,Hurst,TX,Texas,True,,12119.0,1195.3,48439.0,Tarrant,{'48439':100},Tarrant,48439,False,False,America/Chicago
115,6,3,8,6,9,4,8,4,6,4,7,5,Bivins Pointe,6600 KILLGORE DR,,AMARILLO,TX,79106,Potter,79106.0,35.20318,-101.89519,Amarillo,TX,Texas,True,,27015.0,1152.4,48375.0,Potter,"{'48375':87.85,'48381':12.15}",Potter|Randall,48375|48381,False,False,America/Chicago
116,0,0,2,2,1,1,1,1,0,0,0,0,Blanco Villa Nursing and Rehabilitation,8020 BLANCO RD,,SAN ANTONIO,TX,78216,Bexar,78216.0,29.53646,-98.4892,San Antonio,TX,Texas,True,,41765.0,1087.3,48029.0,Bexar,{'48029':100},Bexar,48029,False,False,America/Chicago
117,1,0,1,1,1,0,1,0,1,2,1,0,Blue Skies of Texas East,4917 RAVENSWOOD DR,,SAN ANTONIO,TX,78227,Bexar,78227.0,29.40626,-98.62941,San Antonio,TX,Texas,True,,49907.0,1288.3,48029.0,Bexar,{'48029':100},Bexar,48029,False,False,America/Chicago
118,0,1,0,1,0,1,0,1,0,1,0,1,Blue Skies of Texas West,5100 JOHN D RYAN BLVD,,SAN ANTONIO,TX,78245,Bexar,78245.0,29.40396,-98.73079,San Antonio,TX,Texas,True,,76177.0,656.8,48029.0,Bexar,{'48029':100},Bexar,48029,False,False,America/Chicago
119,0,1,1,0,0,0,0,0,0,0,1,1,Bluebonnet Nursing And Rehabilitation,696 FM 99,,KARNES CITY,TX,78118,Karnes,78118.0,28.88645,-97.95035,Karnes City,TX,Texas,True,,4057.0,8.5,48255.0,Karnes,"{'48255':99.77,'48297':0.23}",Karnes|Live Oak,48255|48297,False,False,America/Chicago
121,1,1,1,1,0,0,1,1,1,0,0,0,"Bonham Nursing and Rehabilitation, LP",709 W 5TH ST,,BONHAM,TX,75418,Fannin,75418.0,33.57268,-96.17766,Bonham,TX,Texas,True,,14376.0,39.8,48147.0,Fannin,{'48147':100},Fannin,48147,False,False,America/Chicago
122,17,25,31,29,32,23,16,26,9,8,4,8,BONNE VIE,8595 MEDICAL CENTER BLVD,,PORT ARTHUR,TX,77640,,77640.0,29.88111,-93.94104,Port Arthur,TX,Texas,True,,15796.0,169.0,48245.0,Jefferson,{'48245':100},Jefferson,48245,False,False,America/Chicago
123,3,1,1,0,1,0,0,0,1,0,0,0,Bonner Street Plaza Healthcare and Rehabilitation,421 S BONNER ST,,JACKSONVILLE,TX,75766,Cherokee,75766.0,31.9462,-95.25704,Jacksonville,TX,Texas,True,,27008.0,33.4,48073.0,Cherokee,{'48073':100},Cherokee,48073,False,False,America/Chicago
124,2,2,2,0,0,0,0,0,0,1,0,0,Borger Healthcare Center,1316 S FLORIDA ST,,BORGER,TX,79007,Hutchinson,79007.0,35.69979,-101.39788,Borger,TX,Texas,True,,14447.0,126.1,48233.0,Hutchinson,{'48233':100},Hutchinson,48233,False,False,America/Chicago
126,0,1,0,0,1,0,0,0,0,1,0,0,Brady West Rehabilitation and Nursing Center,2201 MENARD HWY,,BRADY,TX,76825,McCulloch,76825.0,31.104740000000003,-99.39545,Brady,TX,Texas,True,,6798.0,5.3,48307.0,McCulloch,"{'48307':99.56,'48319':0.44}",McCulloch|Mason,48307|48319,False,False,America/Chicago
127,1,0,0,0,1,0,0,0,0,0,0,0,Brazos at Waco,2430 MARKET PLACE DR,,WACO,TX,76711,,76711.0,31.51441,-97.15333,Waco,TX,Texas,True,,9772.0,884.4,48309.0,McLennan,{'48309':100},McLennan,48309,False,False,America/Chicago
128,1,1,1,3,0,0,4,3,1,0,1,1,Brazos Towers At Bayou Manor,4141 S BRAESWOOD BLVD,,HOUSTON,TX,77025,Harris,77025.0,29.68661,-95.43499,Houston,TX,Texas,True,,28955.0,2353.6,48201.0,Harris,{'48201':100},Harris,48201,False,False,America/Chicago
129,0,0,0,1,1,0,0,0,0,0,0,1,Brazos Valley Care Homebrazos Valley Nursing And Rehabilitation Center,605 S AVENUE F,,KNOX CITY,TX,79529,Knox,79529.0,33.43853,-99.8473,Knox City,TX,Texas,True,,1476.0,6.0,48275.0,Knox,"{'48207':0.36,'48275':99.64}",Knox|Haskell,48275|48207,False,False,America/Chicago
131,1,0,0,0,1,0,1,0,1,0,0,2,Brazosview Healthcare Center,2127 PRESTON ST,,RICHMOND,TX,77469,Fort Bend,77469.0,29.48,-95.68315,Richmond,TX,Texas,True,,48824.0,104.4,48157.0,Fort Bend,{'48157':100},Fort Bend,48157,False,False,America/Chicago
132,0,0,0,0,0,1,0,0,0,0,0,0,Bremond Nursing and Rehabilitation Center,211 N MAIN ST,,BREMOND,TX,76629,Robertson,76629.0,31.15492,-96.6554,Bremond,TX,Texas,True,,1627.0,5.4,48395.0,Robertson,"{'48145':9.5,'48395':90.5}",Robertson|Falls,48395|48145,False,False,America/Chicago
133,5,5,4,6,8,7,5,6,5,1,2,4,Brenham Nursing and Rehabilitation Center,400 E SAYLES ST,,BRENHAM,TX,77833,Washington,77833.0,30.21068,-96.40706,Brenham,TX,Texas,True,,29737.0,33.8,48477.0,Washington,"{'48015':1.25,'48477':98.75}",Washington|Austin,48477|48015,False,False,America/Chicago
135,0,0,2,0,0,1,2,1,0,0,0,0,Brentwood Four,3505 S BUCKNER BLVD,,DALLAS,TX,75227,Dallas,75227.0,32.77001,-96.68728,Dallas,TX,Texas,True,,58995.0,1864.3,48113.0,Dallas,{'48113':100},Dallas,48113,False,False,America/Chicago
136,0,1,1,1,1,0,0,0,0,0,0,0,Brentwood Place I,35052 S BUCKNER BLVD,,DALLAS,TX,75227,Dallas,75227.0,32.77001,-96.68728,Dallas,TX,Texas,True,,58995.0,1864.3,48113.0,Dallas,{'48113':100},Dallas,48113,False,False,America/Chicago
137,1,0,0,0,0,0,0,1,0,0,0,0,Brentwood Place II,8059 SCYENE CIR,,DALLAS,TX,75227,Dallas,75227.0,32.77001,-96.68728,Dallas,TX,Texas,True,,58995.0,1864.3,48113.0,Dallas,{'48113':100},Dallas,48113,False,False,America/Chicago
138,0,0,0,0,0,2,1,1,1,1,0,0,Brentwood Place III,3505 S BUCKNER BLVD,,DALLAS,TX,75227,Dallas,75227.0,32.77001,-96.68728,Dallas,TX,Texas,True,,58995.0,1864.3,48113.0,Dallas,{'48113':100},Dallas,48113,False,False,America/Chicago
139,6,2,4,2,6,7,12,4,4,6,4,5,Brentwood Terrace Healthcare And Rehabilitation Center,2885 STILLHOUSE RD,,PARIS,TX,75462,Lamar,75462.0,33.62385,-95.48378,Paris,TX,Texas,True,,11611.0,21.9,48277.0,Lamar,{'48277':100},Lamar,48277,False,False,America/Chicago
140,3,2,2,2,4,3,8,7,1,0,1,2,Briarcliff Health Center,3403 S VINE AVE,,TYLER,TX,75701,Smith,75701.0,32.32329,-95.30091,Tyler,TX,Texas,True,,35549.0,844.4,48423.0,Smith,{'48423':100},Smith,48423,False,False,America/Chicago
141,6,4,4,5,4,5,12,18,8,9,5,7,"Briarcliff Health Center of Greenville, Inc",4400 WALNUT ST,,GREENVILLE,TX,75401,Hunt,75401.0,33.184259999999995,-96.11951,Greenville,TX,Texas,True,,18869.0,68.9,48231.0,Hunt,{'48231':100},Hunt,48231,False,False,America/Chicago
142,0,0,2,2,2,2,2,0,3,0,1,5,Briarcliff Nursing and Rehabilitation Center,3201 N WARE RD,,MCALLEN,TX,78501,Hidalgo,78501.0,26.21583,-98.23917,Mcallen,TX,Texas,True,,63554.0,1541.1,48215.0,Hidalgo,{'48215':100},Hidalgo,48215,False,False,America/Chicago
143,3,5,5,6,6,5,5,9,6,6,3,3,Briarcliff Skilled Nursing Center,4054 NW LOOP,,CARTHAGE,TX,75633,Panola,75633.0,32.12895,-94.27705,Carthage,TX,Texas,True,,13553.0,16.7,48365.0,Panola,{'48365':100},Panola,48365,False,False,America/Chicago
145,5,4,5,6,2,5,3,5,2,2,4,3,Briarwood Nursing And Rehabilitation,7633 BELLFORT ST,,HOUSTON,TX,77061,Harris,77061.0,29.65377,-95.28422,Houston,TX,Texas,True,,25607.0,1190.4,48201.0,Harris,{'48201':100},Harris,48201,False,False,America/Chicago
146,3,3,5,6,2,6,6,3,9,5,2,1,"Bridgecrest Rehabiliation Suites, LLC",14100 KARISSA CT,,HOUSTON,TX,77049,Harris,77049.0,29.83413,-95.14734,Houston,TX,Texas,True,,35230.0,446.7,48201.0,Harris,{'48201':100},Harris,48201,False,False,America/Chicago
147,1,0,1,1,1,0,0,2,0,1,0,1,BRIDGECREST REHABILITATION SUITES,14100 KARISSA CT,,HOUSTON,TX,77049,,77049.0,29.83413,-95.14734,Houston,TX,Texas,True,,35230.0,446.7,48201.0,Harris,{'48201':100},Harris,48201,False,False,America/Chicago
148,12,1,3,0,2,0,2,0,2,0,2,0,Bridgemoor Transitional Care of Round Rock,16219 RANCH ROAD 620 N,,AUSTIN,TX,78717,,78717.0,30.48988,-97.75371,Austin,TX,Texas,True,,30218.0,674.4,48491.0,Williamson,{'48491':100},Williamson,48491,False,False,America/Chicago
149,3,1,2,1,3,2,4,2,5,2,3,4,Bridgemoor Transitional Care San Antonio,6035 ECKHERT RD,,SAN ANTONIO,TX,78229,,78229.0,29.50555,-98.5722,San Antonio,TX,Texas,True,,31771.0,1939.4,48029.0,Bexar,{'48029':100},Bexar,48029,False,False,America/Chicago
150,9,10,10,14,8,3,4,5,2,1,0,0,BRIDGEMOOR TRANSITIONAL CARE WEBSTER,16130 GALVESTON RD,,WEBSTER,TX,77598,,77598.0,29.53781,-95.13687,Webster,TX,Texas,True,,26473.0,735.4,48201.0,Harris,{'48201':100},Harris,48201,False,False,America/Chicago
151,0,1,0,0,1,0,0,0,0,0,0,2,Brightpointe At Lytle Lake,1201 CLARKS DR,,ABILENE,TX,79602,Taylor,79602.0,32.33948,-99.66982,Abilene,TX,Texas,True,,24672.0,72.4,48441.0,Taylor,"{'48059':1.93,'48441':98.07}",Taylor|Callahan,48441|48059,False,False,America/Chicago
152,16,16,17,21,21,22,20,20,12,11,3,5,BrightPointe at Rivershire,604 CONROE MEDICAL DR,,CONROE,TX,77304,Montgomery,77304.0,30.32957,-95.5141,Conroe,TX,Texas,True,,30785.0,217.1,48339.0,Montgomery,{'48339':100},Montgomery,48339,False,False,America/Chicago
155,17,14,14,12,8,14,7,16,4,7,7,8,Broadmoor Medical Lodge,5242 MEDICAL DR,,ROCKWALL,TX,75032,Rockwall,75032.0,32.85504,-96.42764,Rockwall,TX,Texas,True,,32317.0,210.6,48397.0,Rockwall,{'48397':100},Rockwall,48397,False,False,America/Chicago
156,4,1,2,2,2,2,2,2,2,5,3,7,Brodie Ranch Nursing And Rehabilitation Center,2101 FRATE BARKER RD,,AUSTIN,TX,78748,Travis,78748.0,30.16538,-97.82343,Austin,TX,Texas,True,,50997.0,1238.0,48453.0,Travis,{'48453':100},Travis,48453,False,False,America/Chicago
157,0,1,0,0,0,0,0,0,0,1,0,0,Bronte Health and Rehabilitation Center,900 S STATE ST,,BRONTE,TX,76933,Coke,76933.0,31.86341,-100.28783,Bronte,TX,Texas,True,,1273.0,2.0,48081.0,Coke,"{'48081':92.31,'48399':7.69}",Coke|Runnels,48081|48399,False,False,America/Chicago
158,4,13,8,11,7,14,11,11,12,10,7,9,Brookdale Alamo Heights,855 E BASSE RD,,SAN ANTONIO,TX,78209,Bexar,78209.0,29.48906,-98.45671,San Antonio,TX,Texas,True,,42045.0,1485.7,48029.0,Bexar,{'48029':100},Bexar,48029,False,False,America/Chicago
159,17,14,31,19,15,14,18,17,7,7,6,6,BROOKDALE BROADWAY CITYVIEW,5301 BRYANT IRVIN RD,,FORT WORTH,TX,76132,Tarrant,76132.0,32.667590000000004,-97.41797,Fort Worth,TX,Texas,True,,27058.0,1302.0,48439.0,Tarrant,{'48439':100},Tarrant,48439,False,False,America/Chicago
160,12,14,19,19,10,16,12,14,10,16,12,18,Brookdale Galleria,2929 POST OAK BLVD,,HOUSTON,TX,77056,Harris,77056.0,29.74833,-95.46803,Houston,TX,Texas,True,,21807.0,2084.3,48201.0,Harris,{'48201':100},Harris,48201,False,False,America/Chicago
161,1,6,2,6,4,7,4,8,4,6,2,7,Brookdale Guadalupe River Plaza,808 GUADALUPE ST,,KERRVILLE,TX,78028,Kerr,78028.0,30.03422,-99.15819,Kerrville,TX,Texas,True,,40447.0,57.9,48265.0,Kerr,"{'48171':1.96,'48265':98.04}",Kerr|Gillespie,48265|48171,False,False,America/Chicago
162,0,1,0,1,0,1,0,1,0,1,0,1,Brookdale Guadalupe River Plaza,135 PLAZA DR,,KERRVILLE,TX,78028,,78028.0,30.03422,-99.15819,Kerrville,TX,Texas,True,,40447.0,57.9,48265.0,Kerr,"{'48171':1.96,'48265':98.04}",Kerr|Gillespie,48265|48171,False,False,America/Chicago
163,15,7,7,6,5,4,3,6,7,8,5,11,Brookdale Lakeway Healthcare Center,1917 LOHMANS CROSSING RD,,LAKEWAY,TX,78734,Travis,78734.0,30.37853,-97.94961,Austin,TX,Texas,True,,18745.0,339.1,48453.0,Travis,{'48453':100},Travis,48453,False,False,America/Chicago
164,11,9,6,7,8,4,12,4,8,5,9,6,Brookdale Spicewood Springs,4401 SPICEWOOD SPRINGS RD,,AUSTIN,TX,78759,Travis,78759.0,30.40268,-97.76105,Austin,TX,Texas,True,,42524.0,1079.0,48453.0,Travis,"{'48453':99.22,'48491':0.78}",Travis|Williamson,48453|48491,False,False,America/Chicago
165,8,6,11,5,8,4,5,6,8,8,6,5,Brookdale Trinity Towers,101 N UPPER BROADWAY ST,,CORPUS CHRISTI,TX,78401,Nueces,78401.0,27.798140000000004,-97.40096,Corpus Christi,TX,Texas,True,,5402.0,966.0,48355.0,Nueces,{'48355':100},Nueces,48355,False,False,America/Chicago
166,23,7,11,5,10,11,14,12,14,9,11,13,Brookdale Westlake Hills,1034 LIBERTY PARK DR,,AUSTIN,TX,78746,Travis,78746.0,30.297290000000004,-97.81054,Austin,TX,Texas,True,,28495.0,461.2,48453.0,Travis,{'48453':100},Travis,48453,False,False,America/Chicago
167,1,0,3,2,1,3,4,2,1,2,1,1,Brookdale Willowbrook Place,7450 WILLOWCHASE BLVD,,HOUSTON,TX,77070,,77070.0,29.97776,-95.57315,Houston,TX,Texas,True,,53239.0,1363.1,48201.0,Harris,{'48201':100},Harris,48201,False,False,America/Chicago
168,17,21,36,21,35,35,22,23,21,30,22,27,Brookdale Willowbrook Place Skilled Nursing,13500 BRETON RIDGE ST,,HOUSTON,TX,77070,Harris,77070.0,29.97776,-95.57315,Houston,TX,Texas,True,,53239.0,1363.1,48201.0,Harris,{'48201':100},Harris,48201,False,False,America/Chicago
169,4,2,4,7,5,4,3,10,5,4,2,1,Brookhaven Nursing and Rehabilitation Center,1855 CHEYENNE DR,,CARROLLTON,TX,75010,Denton,75010.0,33.034240000000004,-96.89672,Carrollton,TX,Texas,True,,28974.0,1033.0,48121.0,Denton,{'48121':100},Denton,48121,False,False,America/Chicago
170,2,6,10,6,6,6,6,7,7,10,9,7,Brookhollow Heights Transitional Care Center,1737 NORTH LOOP W,,HOUSTON,TX,77008,Harris,77008.0,29.7986,-95.41754,Houston,TX,Texas,True,,34184.0,1801.6,48201.0,Harris,{'48201':100},Harris,48201,False,False,America/Chicago
172,0,0,0,0,0,1,0,0,0,0,0,0,Brownfield Regional Medical Center,705 E FELT ST,,BROWNFIELD,TX,79316,Terry,79316.0,33.14437,-102.31614,Brownfield,TX,Texas,True,,11333.0,9.5,48445.0,Terry,{'48445':100},Terry,48445,False,False,America/Chicago
173,0,0,1,1,0,3,1,0,2,1,0,1,Brownfield Rehabilitation and Care Center,510 S 1ST ST,,BROWNFIELD,TX,79316,Terry,79316.0,33.14437,-102.31614,Brownfield,TX,Texas,True,,11333.0,9.5,48445.0,Terry,{'48445':100},Terry,48445,False,False,America/Chicago
174,8,9,11,6,7,8,6,3,9,7,8,6,Brownsville Nursing and Rehabilitation Center,320 LORENALY DR,,BROWNSVILLE,TX,78526,Cameron,78526.0,25.99101,-97.43946,Brownsville,TX,Texas,True,,46799.0,371.6,48061.0,Cameron,{'48061':100},Cameron,48061,False,False,America/Chicago
175,1,2,3,0,2,0,1,1,1,0,0,3,"Brownwood Nursing and Rehabilitation, LP",101 MILLER DR,,BROWNWOOD,TX,76801,Brown,76801.0,31.7425,-99.03991,Brownwood,TX,Texas,True,,25319.0,25.8,48049.0,Brown,"{'48049':99.75,'48083':0.02,'48333':0.23}",Brown|Mills|Coleman,48049|48333|48083,False,False,America/Chicago
178,2,0,1,0,1,0,1,0,1,0,1,0,Brush Country Nursing And Rehabilitation,6500 BRUSH COUNTRY RD,,AUSTIN,TX,78749,Travis,78749.0,30.21376,-97.85821,Austin,TX,Texas,True,,37774.0,1320.9,48453.0,Travis,{'48453':100},Travis,48453,False,False,America/Chicago
183,4,1,1,1,1,2,1,1,2,1,1,2,Buckner Villas,11110 TOM ADAMS DR,,AUSTIN,TX,78753,Travis,78753.0,30.382040000000003,-97.67361,Austin,TX,Texas,True,,59085.0,1751.3,48453.0,Travis,{'48453':100},Travis,48453,False,False,America/Chicago
184,0,1,0,1,0,0,0,0,0,0,0,1,Buckner Westminister Place,2201 HORSESHOE LN,,LONGVIEW,TX,75605,Gregg,75605.0,32.58258,-94.72065,Longview,TX,Texas,True,,30011.0,135.7,48183.0,Gregg,"{'48183':85.3,'48203':14.44,'48459':0.26}",Gregg|Harrison|Upshur,48183|48203|48459,False,False,America/Chicago
185,2,0,3,3,5,8,10,4,2,2,4,3,Buena Vida Nursing And Rehabilitation Center,5027 PECAN GROVE BLVD,,SAN ANTONIO,TX,78222,Bexar,78222.0,29.36614,-98.37786,San Antonio,TX,Texas,True,,25574.0,342.3,48029.0,Bexar,{'48029':100},Bexar,48029,False,False,America/Chicago
186,0,0,0,0,0,3,3,3,0,2,0,3,Buena Vida Nursing and Rehabilitation Center at Odessa,3800 ENGLEWOOD LN,,ODESSA,TX,79762,Ector,79762.0,31.92649,-102.35443,Odessa,TX,Texas,True,,43881.0,475.8,48135.0,Ector,{'48135':100},Ector,48135,False,False,America/Chicago
188,4,0,6,0,3,0,0,1,3,1,1,2,Burleson Saint Joseph Manor,1022 STATE HIGHWAY 21 E,,CALDWELL,TX,77836,Burleson,77836.0,30.53745,-96.67998,Caldwell,TX,Texas,True,,11913.0,10.4,48051.0,Burleson,"{'48051':99.53,'48331':0.47}",Burleson|Milam,48051|48331,False,False,America/Chicago
190,1,1,3,2,2,4,1,1,3,1,3,0,Calder Woods,7080 CALDER AVE,,BEAUMONT,TX,77706,Jefferson,77706.0,30.09973,-94.17074,Beaumont,TX,Texas,True,,29792.0,966.8,48245.0,Jefferson,{'48245':100},Jefferson,48245,False,False,America/Chicago
192,9,6,11,13,6,12,8,4,6,8,7,4,Cambridge Health and Rehabilitation Center,1106 GOLFVIEW DR,,RICHMOND,TX,77469,Fort Bend,77469.0,29.48,-95.68315,Richmond,TX,Texas,True,,48824.0,104.4,48157.0,Fort Bend,{'48157':100},Fort Bend,48157,False,False,America/Chicago
193,1,0,0,2,1,1,0,1,0,0,1,1,Cameron Nursing and Rehabilitation Center,2202 N TRAVIS AVE,,CAMERON,TX,76520,Milam,76520.0,30.87611,-96.90748,Cameron,TX,Texas,True,,7921.0,10.8,48331.0,Milam,{'48331':100},Milam,48331,False,False,America/Chicago
195,10,10,12,7,11,10,6,7,4,3,5,2,Canton Oaks,1901 S TRADE DAYS BLVD,,CANTON,TX,75103,Van Zandt,75103.0,32.51192,-95.88237,Canton,TX,Texas,True,,14458.0,24.9,48467.0,Van Zandt,{'48467':100},Van Zandt,48467,False,False,America/Chicago
199,3,2,4,0,3,3,1,1,2,1,3,0,Caprock Nursing and Rehabilitation Center,900 COLLEGE AVE,,BORGER,TX,79007,Hutchinson,79007.0,35.69979,-101.39788,Borger,TX,Texas,True,,14447.0,126.1,48233.0,Hutchinson,{'48233':100},Hutchinson,48233,False,False,America/Chicago
200,1,4,4,4,1,2,2,2,1,5,2,3,Capstone Healthcare Estates At Veterans Memorial,1424 FALLBROOK DR,,HOUSTON,TX,77038,Harris,77038.0,29.9186,-95.44169,Houston,TX,Texas,True,,31365.0,1095.4,48201.0,Harris,{'48201':100},Harris,48201,False,False,America/Chicago
201,5,2,5,4,2,0,1,0,0,2,3,9,Capstone Healthcare Estates on Orem,3730 W OREM DR,,HOUSTON,TX,77045,Harris,77045.0,29.63571,-95.43306,Houston,TX,Texas,True,,37279.0,1041.6,48201.0,Harris,{'48201':100},Harris,48201,False,False,America/Chicago
202,2,1,1,2,0,1,2,1,2,2,0,1,CARADAY WESTERN HILLS,512 DRAPER DR,,TEMPLE,TX,76504,Bell,76504.0,31.138070000000006,-97.37258,Temple,TX,Texas,True,,23666.0,346.5,48027.0,Bell,{'48027':100},Bell,48027,False,False,America/Chicago
204,0,0,0,0,0,0,0,0,1,0,0,0,Care Choice Of Boerne,200 RYAN ST,,BOERNE,TX,78006,Kendall,78006.0,29.85533,-98.72266,Boerne,TX,Texas,True,,32931.0,34.1,48259.0,Kendall,"{'48029':11.2,'48091':1.99,'48259':86.81}",Kendall|Bexar|Comal,48259|48029|48091,False,False,America/Chicago
206,2,7,2,2,2,1,2,4,3,2,0,2,Care Inn of La Grange,457 N MAIN ST,,LA GRANGE,TX,78945,Fayette,78945.0,29.91566,-96.88947,La Grange,TX,Texas,True,,10463.0,16.1,48149.0,Fayette,"{'48021':0.24,'48149':99.76}",Fayette|Bastrop,48149|48021,False,False,America/Chicago
209,0,0,2,2,3,4,1,1,1,1,2,1,Care Nursing and Rehabilitation Center,200 COUNTY ROAD 616,,EARLY,TX,76802,Brown,76802.0,31.75327,-98.90283,Early,TX,Texas,True,,5183.0,27.1,48049.0,Brown,{'48049':100},Brown,48049,False,False,America/Chicago
211,5,6,8,6,9,10,4,9,2,4,6,8,Carillon House,1717 NORFOLK AVE,,LUBBOCK,TX,79416,Lubbock,79416.0,33.60429,-101.97648,Lubbock,TX,Texas,True,,33796.0,388.1,48303.0,Lubbock,{'48303':100},Lubbock,48303,False,False,America/Chicago
213,11,18,13,9,7,8,9,7,3,7,2,0,Carrara,4501 TRADITION TRL,,PLANO,TX,75093,Collin,75093.0,33.0355,-96.81001,Plano,TX,Texas,True,,47411.0,1291.2,48085.0,Collin,"{'48085':93.14,'48121':6.86}",Collin|Denton,48085|48121,False,False,America/Chicago
214,5,4,3,9,10,4,6,7,2,2,2,2,Carriage House Manor,210 PIPELINE RD,,SULPHUR SPRINGS,TX,75482,Hopkins,75482.0,33.16816,-95.60681,Sulphur Springs,TX,Texas,True,,25003.0,30.1,48223.0,Hopkins,{'48223':100},Hopkins,48223,False,False,America/Chicago
215,5,1,0,0,1,1,1,1,1,1,1,1,"Carrizo Springs Nursing and Rehabilitation, LP",506 S 7TH ST,,CARRIZO SPRINGS,TX,78834,Dimmit,78834.0,28.46432,-99.92139,Carrizo Springs,TX,Texas,True,,8549.0,5.4,48127.0,Dimmit,{'48127':100},Dimmit,48127,False,False,America/Chicago
216,0,0,0,2,3,2,3,1,1,0,1,3,Carrollton Health And Rehabilitation Center,1618 KIRBY RD,,CARROLLTON,TX,75006,Dallas,75006.0,32.96188,-96.89701,Carrollton,TX,Texas,True,,51136.0,1065.0,48113.0,Dallas,{'48113':100},Dallas,48113,False,False,America/Chicago
218,1,1,1,0,4,0,1,2,0,2,3,2,Carthage Healthcare Center,701 S MARKET ST,,CARTHAGE,TX,75633,Panola,75633.0,32.12895,-94.27705,Carthage,TX,Texas,True,,13553.0,16.7,48365.0,Panola,{'48365':100},Panola,48365,False,False,America/Chicago
220,0,3,3,2,1,2,6,2,3,3,1,2,Castle Pines Health and Rehabilitation Center,2414 W FRANK AVE,,LUFKIN,TX,75904,Angelina,75904.0,31.33969,-94.82173,Lufkin,TX,Texas,True,,34059.0,92.3,48005.0,Angelina,"{'48005':99.95,'48455':0.05}",Angelina|Trinity,48005|48455,False,False,America/Chicago
225,5,6,9,6,6,6,11,5,3,6,2,5,CC Young Retirement Community,4829 W LAWTHER DR,,DALLAS,TX,75214,Dallas,75214.0,32.82867,-96.74542,Dallas,TX,Texas,True,,33906.0,1758.0,48113.0,Dallas,{'48113':100},Dallas,48113,False,False,America/Chicago
226,0,0,0,0,0,0,1,0,0,0,2,2,Cedar Creek Nursing and Rehabilitation Center,159 MONTAGUE AVE,,BANDERA,TX,78003,Bandera,78003.0,29.70959,-99.09413,Bandera,TX,Texas,True,,9539.0,14.9,48019.0,Bandera,"{'48019':97.54,'48325':2.46}",Bandera|Medina,48019|48325,False,False,America/Chicago
229,1,0,0,0,0,0,0,1,1,1,0,0,Cedar Hill Healthcare Center,230 S CLARK RD,,CEDAR HILL,TX,75104,Dallas,75104.0,32.58039,-96.96618,Cedar Hill,TX,Texas,True,,49341.0,448.3,48113.0,Dallas,"{'48113':99.1,'48139':0.9}",Dallas|Ellis,48113|48139,False,False,America/Chicago
231,6,0,7,3,3,3,3,7,1,2,3,1,Cedar Lake Nursing Home,1611 W ROYALL BLVD,,MALAKOFF,TX,75148,Henderson,75148.0,32.12462,-96.01216,Malakoff,TX,Texas,True,,6060.0,25.8,48213.0,Henderson,{'48213':100},Henderson,48213,False,False,America/Chicago
233,3,0,2,1,2,0,2,0,3,1,3,2,Cedar Pointe Health and Wellness Suites,1301 COTTONWOOD CREEK TRL,,CEDAR PARK,TX,78613,,78613.0,30.50395,-97.82463,Cedar Park,TX,Texas,True,,79699.0,892.6,48491.0,Williamson,"{'48453':12.9,'48491':87.1}",Williamson|Travis,48491|48453,False,False,America/Chicago
234,0,0,2,1,0,0,1,1,2,0,0,1,Centerville Healthcare Center,103 TEAKWOOD,,CENTERVILLE,TX,75833,Leon,75833.0,31.26718,-95.83899,Centerville,TX,Texas,True,,3144.0,5.2,48289.0,Leon,{'48289':100},Leon,48289,False,False,America/Chicago
237,0,0,0,0,0,1,0,0,0,1,1,1,Central Texas Nursing and Rehabilitation,1800 N BROADWAY ST,,BALLINGER,TX,76821,Runnels,76821.0,31.7387,-99.93626,Ballinger,TX,Texas,True,,4578.0,6.2,48399.0,Runnels,{'48399':100},Runnels,48399,False,False,America/Chicago
239,2,2,0,0,2,2,1,2,1,0,1,0,Chandler Nursing Center,300 CHERRY ST,,CHANDLER,TX,75758,Henderson,75758.0,32.275420000000004,-95.50733,Chandler,TX,Texas,True,,8119.0,70.9,48213.0,Henderson,"{'48213':93.07,'48467':6.93}",Henderson|Van Zandt,48213|48467,False,False,America/Chicago
241,0,1,2,2,4,0,3,0,1,1,4,1,Chelsea Gardens,4422 RIVERSTONE BLVD,,MISSOURI CITY,TX,77459,Fort Bend,77459.0,29.52569,-95.533,Missouri City,TX,Texas,True,,69546.0,663.5,48157.0,Fort Bend,{'48157':100},Fort Bend,48157,False,False,America/Chicago
242,2,2,0,1,0,2,1,3,0,0,1,4,Cherokee Rose Nursing and Rehabilitation,203 E GIBBS BLVD,,GLEN ROSE,TX,76043,Somervell,76043.0,32.20528,-97.79713,Glen Rose,TX,Texas,True,,7499.0,19.9,48425.0,Somervell,"{'48035':0.13,'48425':99.87}",Somervell|Bosque,48425|48035,False,False,America/Chicago
243,0,0,1,0,1,0,0,1,0,0,0,0,Cherokee Trails Rehab and Healthcare,330 BAGLEY RD,,RUSK,TX,75785,Cherokee,75785.0,31.77995,-95.17381,Rusk,TX,Texas,True,,11265.0,16.3,48073.0,Cherokee,{'48073':100},Cherokee,48073,False,False,America/Chicago
244,3,2,5,3,2,1,2,0,1,0,1,0,Cheyenne Medical Lodge,750 HIGHWAY 352,,MESQUITE,TX,75149,,75149.0,32.77003,-96.61487,Mesquite,TX,Texas,True,,54979.0,1363.2,48113.0,Dallas,{'48113':100},Dallas,48113,False,False,America/Chicago
245,2,2,0,0,0,0,0,0,0,0,0,0,Chi Saint Joseph Health Burleson Hospital,1101 WOODSON DR,,CALDWELL,TX,77836,Burleson,77836.0,30.53745,-96.67998,Caldwell,TX,Texas,True,,11913.0,10.4,48051.0,Burleson,"{'48051':99.53,'48331':0.47}",Burleson|Milam,48051|48331,False,False,America/Chicago
246,2,1,0,0,1,1,4,0,0,0,0,0,Chi Saint Joseph Health Grimes Hospital,210 S JUDSON ST,,NAVASOTA,TX,77868,Grimes,77868.0,30.3686,-96.0616,Navasota,TX,Texas,True,,17028.0,22.1,48185.0,Grimes,"{'48041':7.65,'48185':91.98,'48473':0.2,'48477':0.17}",Grimes|Brazos|Waller|Washington,48185|48041|48473|48477,False,False,America/Chicago
247,4,1,0,0,0,0,0,0,0,0,0,0,CHI Saint Joseph Skilled and Rehabilitation Center,2333 MANOR DR,,BRYAN,TX,77802,Brazos,77802.0,30.66126,-96.32265,Bryan,TX,Texas,True,,26128.0,765.6,48041.0,Brazos,{'48041':100},Brazos,48041,False,False,America/Chicago
249,0,0,0,0,0,1,1,0,0,1,1,1,Childress Healthcare Center,1200 7TH ST NW,,CHILDRESS,TX,79201,Childress,79201.0,34.43714,-100.28085,Childress,TX,Texas,True,,7238.0,3.2,48075.0,Childress,"{'48075':99.18,'48101':0.36,'48345':0.47}",Childress|Motley|Cottle,48075|48345|48101,False,False,America/Chicago
250,0,0,3,0,0,0,0,0,0,0,0,1,Childress Regional Medical Center,901 US HIGHWAY 83 N,,CHILDRESS,TX,79201,Childress,79201.0,34.43714,-100.28085,Childress,TX,Texas,True,,7238.0,3.2,48075.0,Childress,"{'48075':99.18,'48101':0.36,'48345':0.47}",Childress|Motley|Cottle,48075|48345|48101,False,False,America/Chicago
252,3,4,2,2,1,1,1,2,3,1,3,2,Chisolm Trail Nursing And Rehabilitation Center,107 N MEDINA ST,,LOCKHART,TX,78644,Caldwell,78644.0,29.870490000000004,-97.67528,Lockhart,TX,Texas,True,,18274.0,35.3,48055.0,Caldwell,{'48055':100},Caldwell,48055,False,False,America/Chicago
253,4,1,0,2,1,2,1,3,0,3,1,3,Christian Care Center,1008 CITIZENS TRL,,TEXARKANA,TX,75501,Bowie,75501.0,33.37363,-94.13142,Texarkana,TX,Texas,True,,35834.0,147.2,48037.0,Bowie,{'48037':100},Bowie,48037,False,False,America/Chicago
254,11,11,12,7,5,6,7,9,2,3,5,6,Christian Care Nursing And Rehabilitation,1000 WIGGINS PKWY,,MESQUITE,TX,75150,Dallas,75150.0,32.81577,-96.63039,Mesquite,TX,Texas,True,,62452.0,1776.4,48113.0,Dallas,{'48113':100},Dallas,48113,False,False,America/Chicago
255,0,0,0,0,1,0,0,0,0,0,0,0,CHRISTUS Jasper Memorial Hospital,1275 MARVIN HANCOCK DR,,JASPER,TX,75951,Jasper,75951.0,30.94151,-94.05383,Jasper,TX,Texas,True,,16183.0,15.8,48241.0,Jasper,"{'48241':99.98,'48351':0.02}",Jasper|Newton,48241|48351,False,False,America/Chicago
256,0,1,1,1,0,1,1,0,0,0,0,0,Christus Mother Frances Hospital - Winnsboro,719 W COKE RD,,WINNSBORO,TX,75494,Wood,75494.0,32.90938,-95.26235,Winnsboro,TX,Texas,True,,9489.0,18.5,48223.0,Hopkins,"{'48159':15.15,'48223':8.47,'48459':1.1,'48499':75.27}",Hopkins|Wood|Franklin|Upshur,48223|48499|48159|48459,False,False,America/Chicago
257,2,2,5,5,3,2,4,4,0,0,0,0,Christus Mother Frances Hospital Jacksonville,2026 S JACKSON ST,,JACKSONVILLE,TX,75766,Cherokee,75766.0,31.9462,-95.25704,Jacksonville,TX,Texas,True,,27008.0,33.4,48073.0,Cherokee,{'48073':100},Cherokee,48073,False,False,America/Chicago
262,0,0,0,1,2,1,1,1,2,1,0,0,CHRISTUS Spohn Hospital Corpus Christi Memorial,2606 HOSPITAL BLVD,,CORPUS CHRISTI,TX,78405,Nueces,78405.0,27.77425,-97.43876,Corpus Christi,TX,Texas,True,,15326.0,1282.4,48355.0,Nueces,{'48355':100},Nueces,48355,False,False,America/Chicago
263,0,0,0,0,1,0,1,0,0,0,0,0,CHRISTUS Spohn Hospital Corpus Christi Shoreline,600 ELIZABETH ST,,CORPUS CHRISTI,TX,78404,Nueces,78404.0,27.76805,-97.39899,Corpus Christi,TX,Texas,True,,18376.0,2142.0,48355.0,Nueces,{'48355':100},Nueces,48355,False,False,America/Chicago
267,2,5,4,3,2,1,5,4,4,8,4,3,Cibolo Creek,1440 RIVER RD,,BOERNE,TX,78006,Kendall,78006.0,29.85533,-98.72266,Boerne,TX,Texas,True,,32931.0,34.1,48259.0,Kendall,"{'48029':11.2,'48091':1.99,'48259':86.81}",Kendall|Bexar|Comal,48259|48029|48091,False,False,America/Chicago
268,1,1,0,0,2,6,3,3,2,1,2,3,CIMARRON PARK NURSING AND REHABILITATION CENTER,7441 PASEO DEL NORTE,,EL PASO,TX,79911,,79911.0,31.89246,-106.54251,El Paso,TX,Texas,True,,5732.0,96.9,48141.0,El Paso,{'48141':100},El Paso,48141,False,False,America/Denver
269,3,5,3,1,2,2,3,6,3,7,3,5,Cimarron Place Health and Rehabilitation Center,3801 CIMARRON BLVD,,CORPUS CHRISTI,TX,78414,Nueces,78414.0,27.6603,-97.36893,Corpus Christi,TX,Texas,True,,39642.0,811.9,48355.0,Nueces,{'48355':100},Nueces,48355,False,False,America/Chicago
270,0,1,1,1,3,4,1,1,1,0,3,0,Cisco Nursing And Rehabilitation,1404 FRONT ST,,CISCO,TX,76437,Eastland,76437.0,32.39591,-99.02367,Cisco,TX,Texas,True,,5706.0,5.5,48133.0,Eastland,"{'48059':2.27,'48133':95.33,'48429':2.39}",Eastland|Stephens|Callahan,48133|48429|48059,False,False,America/Chicago
271,0,1,0,0,0,1,0,0,0,0,0,0,Citizens Medical Center Skilled Nursing Unit,2701 HOSPITAL DR,,VICTORIA,TX,77901,Victoria,77901.0,28.80493,-96.98473,Victoria,TX,Texas,True,,43123.0,810.9,48469.0,Victoria,{'48469':100},Victoria,48469,False,False,America/Chicago
272,2,0,3,2,1,2,3,3,2,4,2,3,Cityview Nursing And Rehabilitation Center,5801 BRYANT IRVIN RD,,FORT WORTH,TX,76132,Tarrant,76132.0,32.667590000000004,-97.41797,Fort Worth,TX,Texas,True,,27058.0,1302.0,48439.0,Tarrant,{'48439':100},Tarrant,48439,False,False,America/Chicago
273,10,12,8,6,11,9,8,10,2,3,3,3,Clairmont of Beaumont,1020 S 23RD ST,,BEAUMONT,TX,77707,Jefferson,77707.0,30.05295,-94.17654,Beaumont,TX,Texas,True,,18609.0,446.2,48245.0,Jefferson,{'48245':100},Jefferson,48245,False,False,America/Chicago
274,0,1,2,4,1,1,1,1,1,1,2,1,Clarewood House,7400 CLAREWOOD DR,,HOUSTON,TX,77036,Harris,77036.0,29.70167,-95.53594,Houston,TX,Texas,True,,76831.0,3883.5,48201.0,Harris,{'48201':100},Harris,48201,False,False,America/Chicago
275,2,5,5,4,3,4,7,6,7,3,3,4,Clarksville Nursing Center,300 E BAKER ST,,CLARKSVILLE,TX,75426,Red River,75426.0,33.655390000000004,-95.00488,Clarksville,TX,Texas,True,,4625.0,6.3,48387.0,Red River,{'48387':100},Red River,48387,False,False,America/Chicago
276,0,0,0,0,0,1,0,0,1,0,1,0,Clay County Memorial Hospital,310 W SOUTH ST,,HENRIETTA,TX,76365,Clay,76365.0,33.75812,-98.20162,Henrietta,TX,Texas,True,,4419.0,3.5,48077.0,Clay,"{'48077':99.42,'48237':0.58}",Clay|Jack,48077|48237,False,False,America/Chicago
278,2,2,2,1,3,1,0,2,3,2,1,3,Clear Brook Crossing Rehabilitation and Healthcare Center,10800 FLORA MAE MEADOWS RD,,HOUSTON,TX,77089,Harris,77089.0,29.58675,-95.22525,Houston,TX,Texas,True,,53866.0,1421.6,48201.0,Harris,{'48201':100},Harris,48201,False,False,America/Chicago
280,15,21,14,16,21,13,11,14,13,6,15,11,Cleveland Health Care Center,903 E HOUSTON ST,,CLEVELAND,TX,77327,Liberty,77327.0,30.32154,-94.92631,Cleveland,TX,Texas,True,,23034.0,24.5,48291.0,Liberty,{'48291':100},Liberty,48291,False,False,America/Chicago
281,0,0,0,0,0,0,1,1,0,0,0,0,"Clifton Nursing and Rehabilitation Center, LP",1000 FM 3220,,CLIFTON,TX,76634,Bosque,76634.0,31.80782,-97.56147,Clifton,TX,Texas,True,,7225.0,9.7,48035.0,Bosque,"{'48035':99.38,'48099':0.62}",Bosque|Coryell,48035|48099,False,False,America/Chicago
282,1,0,1,1,0,1,0,0,0,0,0,0,Clyde Nursing Center,806 STEPHENS ST,,CLYDE,TX,79510,Callahan,79510.0,32.27507,-99.52899,Clyde,TX,Texas,True,,7379.0,11.2,48059.0,Callahan,"{'48059':99.55,'48083':0.45}",Callahan|Coleman,48059|48083,False,False,America/Chicago
283,0,0,0,0,0,0,1,2,2,2,0,1,Clyde W Cosper Texas State Veterans Home,1300 SEVEN OAKS RD,,BONHAM,TX,75418,Fannin,75418.0,33.57268,-96.17766,Bonham,TX,Texas,True,,14376.0,39.8,48147.0,Fannin,{'48147':100},Fannin,48147,False,False,America/Chicago
284,1,2,3,1,1,3,2,2,4,2,1,1,Coastal Palms Nursing And Rehabilitation,221 CEDAR DR,,PORTLAND,TX,78374,San Patricio,78374.0,27.89798,-97.37805,Portland,TX,Texas,True,,17885.0,135.0,48409.0,San Patricio,{'48409':100},San Patricio,48409,False,False,America/Chicago
285,1,0,1,0,1,0,1,0,1,0,1,0,Cogdell Memorial Hospital,1700 COGDELL BLVD,,SNYDER,TX,79549,Scurry,79549.0,32.91367,-100.84508,Snyder,TX,Texas,True,,16024.0,6.3,48415.0,Scurry,"{'48263':0.48,'48415':99.52}",Scurry|Kent,48415|48263,False,False,America/Chicago
288,0,0,0,0,0,0,1,0,0,0,0,0,Coleman County Medical Center,310 S PECOS ST,,COLEMAN,TX,76834,Coleman,76834.0,31.874370000000006,-99.47038,Coleman,TX,Texas,True,,5328.0,5.6,48083.0,Coleman,{'48083':100},Coleman,48083,False,False,America/Chicago
289,0,0,0,0,0,0,1,1,0,1,1,2,Coleman Healthcare Center,2713 S COMMERCIAL AVE,,COLEMAN,TX,76834,Coleman,76834.0,31.874370000000006,-99.47038,Coleman,TX,Texas,True,,5328.0,5.6,48083.0,Coleman,{'48083':100},Coleman,48083,False,False,America/Chicago
290,21,25,25,35,20,29,25,26,18,22,23,30,College Park Rehabilitation and Care Center,1715 MARTIN DR,,WEATHERFORD,TX,76086,Parker,76086.0,32.75481,-97.78995,Weatherford,TX,Texas,True,,23383.0,530.5,48367.0,Parker,{'48367':100},Parker,48367,False,False,America/Chicago
291,0,2,1,1,4,1,0,3,0,0,0,1,College Street Nursing Center,4150 COLLEGE ST,,BEAUMONT,TX,77707,Jefferson,77707.0,30.05295,-94.17654,Beaumont,TX,Texas,True,,18609.0,446.2,48245.0,Jefferson,{'48245':100},Jefferson,48245,False,False,America/Chicago
292,0,0,0,0,0,0,0,1,0,0,0,0,Collingsworth General Hospital,1013 15TH ST,,WELLINGTON,TX,79095,Collingsworth,79095.0,34.896159999999995,-100.2061,Wellington,TX,Texas,True,,2692.0,2.8,48087.0,Collingsworth,{'48087':100},Collingsworth,48087,False,False,America/Chicago
293,0,2,1,1,3,2,3,0,0,1,0,0,Collinwood Nursing And Rehabilitation,3100 S RIGSBEE DR,,PLANO,TX,75074,Collin,75074.0,33.0319,-96.67429,Plano,TX,Texas,True,,51147.0,1043.2,48085.0,Collin,{'48085':100},Collin,48085,False,False,America/Chicago
294,1,0,1,0,2,1,0,1,1,0,0,2,Colonial Belle Nursing Home,106 N BARON ST,,BELLVILLE,TX,77418,Austin,77418.0,29.978790000000004,-96.25057,Bellville,TX,Texas,True,,10381.0,19.5,48015.0,Austin,{'48015':100},Austin,48015,False,False,America/Chicago
295,0,0,0,0,0,0,0,0,1,0,1,0,Colonial Belle Nursing Home Sealy,1401 EAGLE LAKE RD,,SEALY,TX,77474,Austin,77474.0,29.773770000000006,-96.17926,Sealy,TX,Texas,True,,12825.0,23.7,48015.0,Austin,{'48015':100},Austin,48015,False,False,America/Chicago
296,0,0,0,0,0,1,1,1,1,0,0,1,Colonial Care Center,507 WEST AVE,,SCHULENBURG,TX,78956,Fayette,78956.0,29.68793,-96.93415,Schulenburg,TX,Texas,True,,5383.0,12.3,48149.0,Fayette,"{'48149':92.34,'48285':7.66}",Fayette|Lavaca,48149|48285,False,False,America/Chicago
298,6,6,12,9,8,8,6,9,9,8,7,4,Colonial Manor Advanced Rehab and Healthcare,1100 W MINNESOTA RD,,PHARR,TX,78577,Hidalgo,78577.0,26.15047,-98.19104,Pharr,TX,Texas,True,,77835.0,861.2,48215.0,Hidalgo,{'48215':100},Hidalgo,48215,False,False,America/Chicago
299,0,1,1,1,0,2,0,2,2,4,1,1,Colonial Manor Nursing And Rehabilitation Center,821 US HWY 81,,NEW BRAUNFELS,TX,78130,Comal,78130.0,29.69772,-98.0702,New Braunfels,TX,Texas,True,,74172.0,249.0,48091.0,Comal,"{'48091':71.41,'48187':28.59}",Comal|Guadalupe,48091|48187,False,False,America/Chicago
300,0,0,0,1,0,0,0,0,1,1,1,0,Colonial Manor Nursing Center,2035 GRANBURY ST,,CLEBURNE,TX,76033,Johnson,76033.0,32.28511,-97.51137,Cleburne,TX,Texas,True,,26310.0,58.4,48251.0,Johnson,"{'48221':0.06,'48251':99.94}",Johnson|Hood,48251|48221,False,False,America/Chicago
301,10,9,9,11,11,6,7,13,5,7,1,2,Colonial Nursing and Rehabilitation Center,508 PIERCE ST,,LINDALE,TX,75771,Smith,75771.0,32.5361,-95.43456,Lindale,TX,Texas,True,,20488.0,49.2,48423.0,Smith,{'48423':100},Smith,48423,False,False,America/Chicago
306,3,2,7,5,3,7,8,6,3,7,6,6,Colonial Pines Healthcare Center,1203 FARM RD 1277,,SAN AUGUSTINE,TX,75972,San Augustine,75972.0,31.49499,-94.12708,San Augustine,TX,Texas,True,,5997.0,7.1,48405.0,San Augustine,"{'48403':4.03,'48405':95.12,'48419':0.85}",San Augustine|Sabine|Shelby,48405|48403|48419,False,False,America/Chicago
309,0,0,0,0,0,0,0,1,0,0,0,0,Columbus Community Hospital,110 SHULT DR,,COLUMBUS,TX,78934,Colorado,78934.0,29.69375,-96.56013,Columbus,TX,Texas,True,,6394.0,13.5,48089.0,Colorado,{'48089':100},Colorado,48089,False,False,America/Chicago
311,1,2,1,0,0,0,0,0,0,0,0,0,Columbus Oaks Healthcare Community,300 NORTH ST,,COLUMBUS,TX,78934,Colorado,78934.0,29.69375,-96.56013,Columbus,TX,Texas,True,,6394.0,13.5,48089.0,Colorado,{'48089':100},Colorado,48089,False,False,America/Chicago
312,0,0,2,0,0,1,1,3,0,0,0,0,Comanche County Medical Center,10201 HIGHWAY 16,,COMANCHE,TX,76442,Comanche,76442.0,31.89183,-98.61491,Comanche,TX,Texas,True,,7813.0,6.5,48093.0,Comanche,"{'48093':98.73,'48333':1.27}",Comanche|Mills,48093|48333,False,False,America/Chicago
313,0,0,1,3,1,1,2,3,4,1,0,0,Community Care Center,1150 E LOOP 304,,CROCKETT,TX,75835,Houston,75835.0,31.2935,-95.49194,Crockett,TX,Texas,True,,11105.0,10.3,48225.0,Houston,{'48225':100},Houston,48225,False,False,America/Chicago
315,0,0,2,0,0,1,0,0,0,2,2,3,Community Care Center Of Hondo,2001 AVENUE E,,HONDO,TX,78861,Medina,78861.0,29.4267,-99.15448,Hondo,TX,Texas,True,,13965.0,11.5,48325.0,Medina,{'48325':100},Medina,48325,False,False,America/Chicago
317,0,0,0,1,0,0,1,1,0,1,0,0,Concho County Hospital,614 EAKER ST,,EDEN,TX,76837,Concho,76837.0,31.2208,-99.89594,Eden,TX,Texas,True,,3279.0,2.8,48095.0,Concho,{'48095':100},Concho,48095,False,False,America/Chicago
318,0,0,0,0,0,1,1,1,1,0,1,1,Concho Health and Rehabilitation Center,613 EAKER ST,,EDEN,TX,76837,Concho,76837.0,31.2208,-99.89594,Eden,TX,Texas,True,,3279.0,2.8,48095.0,Concho,{'48095':100},Concho,48095,False,False,America/Chicago
320,6,7,11,16,17,14,14,19,14,7,8,14,Conroe Healthcare Center,2019 N FRAZIER ST,,CONROE,TX,77301,Montgomery,77301.0,30.307920000000006,-95.43426,Conroe,TX,Texas,True,,33660.0,628.5,48339.0,Montgomery,{'48339':100},Montgomery,48339,False,False,America/Chicago
321,2,6,6,4,6,3,1,5,5,8,5,4,Continuing Care At Highland Springs,7910 FRANKFORD RD,,DALLAS,TX,75252,Dallas,75252.0,32.99728,-96.79091,Dallas,TX,Texas,True,,26511.0,1845.3,48085.0,Collin,"{'48085':97.44,'48113':2.56}",Collin|Dallas,48085|48113,False,False,America/Chicago
324,0,0,0,0,0,0,1,1,0,0,0,0,Coon Memorial Hospital,1411 DENVER AVE,,DALHART,TX,79022,Dallam,79022.0,36.10661,-102.61108,Dalhart,TX,Texas,True,,11346.0,2.2,48111.0,Dallam,"{'48111':55.14,'48205':44.86}",Dallam|Hartley,48111|48205,False,False,America/Chicago
328,2,1,0,0,1,1,1,0,0,0,1,1,Copperas Cove Nursing and Rehabilitation,607 W AVENUE B,,COPPERAS COVE,TX,76522,Coryell,76522.0,31.21606,-97.97338,Copperas Cove,TX,Texas,True,,36204.0,119.4,48099.0,Coryell,"{'48099':94.69,'48281':5.31}",Coryell|Lampasas,48099|48281,False,False,America/Chicago
329,0,1,0,2,0,0,0,0,0,1,0,0,Copperas Hollow Nursing and Rehabilitation Center,345 COUNTRY CLUB DR,,CALDWELL,TX,77836,Burleson,77836.0,30.53745,-96.67998,Caldwell,TX,Texas,True,,11913.0,10.4,48051.0,Burleson,"{'48051':99.53,'48331':0.47}",Burleson|Milam,48051|48331,False,False,America/Chicago
330,9,11,8,11,9,5,6,12,15,2,5,6,Copperfield Healthcare and Rehabilitation,7107 QUEENSTON BLVD,,HOUSTON,TX,77095,Harris,77095.0,29.90819,-95.65323,Houston,TX,Texas,True,,71878.0,1667.4,48201.0,Harris,{'48201':100},Harris,48201,False,False,America/Chicago
331,5,4,10,10,7,10,6,5,5,10,6,2,Corinth Rehabilitation Suites on the Parkway,3511 CORINTH PKWY,,DENTON,TX,76208,Denton,76208.0,33.20883,-97.05736,Denton,TX,Texas,True,,24687.0,282.0,48121.0,Denton,{'48121':100},Denton,48121,False,False,America/Chicago
332,1,0,1,2,3,1,2,1,0,1,0,0,Cornerstone Gardens Healthcare and Rehabilitation,763 MARLANDWOOD RD,,TEMPLE,TX,76502,Bell,76502.0,31.09622,-97.41034,Temple,TX,Texas,True,,40622.0,193.5,48027.0,Bell,{'48027':100},Bell,48027,False,False,America/Chicago
333,1,2,2,3,2,2,1,4,0,2,0,2,Cornerstone Retirement Community,4100 MOORES LN,,TEXARKANA,TX,75503,Bowie,75503.0,33.51343,-94.13057,Texarkana,TX,Texas,True,,25710.0,119.2,48037.0,Bowie,{'48037':100},Bowie,48037,False,False,America/Chicago
334,14,12,15,12,10,9,9,16,13,9,7,4,Coronado at Stone Oak,19638 STONE OAK PKWY,,SAN ANTONIO,TX,78258,Bexar,78258.0,29.6337,-98.49605,San Antonio,TX,Texas,True,,46418.0,987.2,48029.0,Bexar,{'48029':100},Bexar,48029,False,False,America/Chicago
335,0,0,2,1,0,0,1,0,0,0,0,0,Coronado Healthcare Center,1504 W KENTUCKY AVE,,PAMPA,TX,79065,Gray,79065.0,35.54207,-100.89977,Pampa,TX,Texas,True,,20873.0,16.4,48179.0,Gray,"{'48179':99.43,'48393':0.57}",Gray|Roberts,48179|48393,False,False,America/Chicago
336,1,0,0,0,2,1,0,0,0,0,0,0,Coronado Nursing And Rehab,1751 N 15TH ST,,ABILENE,TX,79603,Taylor,79603.0,32.40153,-99.88473,Abilene,TX,Texas,True,,23064.0,160.5,48441.0,Taylor,{'48441':100},Taylor,48441,False,False,America/Chicago
341,0,1,3,2,0,1,2,4,2,1,2,0,Corpus Christi Nursing and Rehabilitation Center,2735 AIRLINE RD,,CORPUS CHRISTI,TX,78414,Nueces,78414.0,27.6603,-97.36893,Corpus Christi,TX,Texas,True,,39642.0,811.9,48355.0,Nueces,{'48355':100},Nueces,48355,False,False,America/Chicago
342,1,3,4,4,4,4,4,4,4,4,4,5,Corrigan LTC Nursing and Rehabilitation Center,300 HYDE ST,,CORRIGAN,TX,75939,Polk,75939.0,31.01825,-94.79404,Corrigan,TX,Texas,True,,4912.0,6.4,48373.0,Polk,{'48373':100},Polk,48373,False,False,America/Chicago
343,0,0,1,0,0,0,1,0,0,0,0,0,Coryell Memorial Healthcare System,1507 W MAIN ST,,GATESVILLE,TX,76528,Coryell,76528.0,31.42046,-97.76154,Gatesville,TX,Texas,True,,16825.0,13.0,48099.0,Coryell,"{'48027':1.66,'48099':98.34}",Coryell|Bell,48099|48027,False,False,America/Chicago
344,2,1,4,4,3,4,5,4,3,4,4,5,Cottonwood Creek Healthcare Community,1111 W SHORE DR,,RICHARDSON,TX,75080,Dallas,75080.0,32.97395,-96.74203,Richardson,TX,Texas,True,,51710.0,1486.8,48113.0,Dallas,"{'48085':22.48,'48113':77.52}",Dallas|Collin,48113|48085,False,False,America/Chicago
346,1,0,0,1,2,0,1,0,0,0,0,0,"Cottonwood Nursing and Rehabilitation, LP",2224 N CARROLL BLVD,,DENTON,TX,76201,Denton,76201.0,33.22113,-97.14723,Denton,TX,Texas,True,,27965.0,1876.1,48121.0,Denton,{'48121':100},Denton,48121,False,False,America/Chicago
347,1,2,3,4,1,4,1,0,2,4,5,4,Country Care Manor,2736 FARM RD 775,,LA VERNIA,TX,78121,Wilson,78121.0,29.351470000000006,-98.10722,La Vernia,TX,Texas,True,,13078.0,42.7,48493.0,Wilson,"{'48187':9.16,'48493':90.84}",Wilson|Guadalupe,48493|48187,False,False,America/Chicago
348,1,0,1,0,0,0,0,0,0,0,1,0,"Country Club Nursing and Rehabilitation, LP",9 MEDICAL DR,,AMARILLO,TX,79106,Potter,79106.0,35.20318,-101.89519,Amarillo,TX,Texas,True,,27015.0,1152.4,48375.0,Potter,"{'48375':87.85,'48381':12.15}",Potter|Randall,48375|48381,False,False,America/Chicago
350,1,2,1,2,4,2,1,2,0,1,0,1,Country Meadows Nursing and Rehabilitation Center,3301 W PARK ROW BLVD,,CORSICANA,TX,75110,Navarro,75110.0,32.086929999999995,-96.52879,Corsicana,TX,Texas,True,,29213.0,72.4,48349.0,Navarro,{'48349':100},Navarro,48349,False,False,America/Chicago
353,0,0,0,0,0,2,0,2,0,0,0,0,Country View Nursing And Rehabilitation,1900 N FRANCES ST,,TERRELL,TX,75160,Kaufman,75160.0,32.76168,-96.30018,Terrell,TX,Texas,True,,25317.0,76.0,48257.0,Kaufman,"{'48231':5.89,'48257':93.96,'48397':0.15}",Kaufman|Hunt|Rockwall,48257|48231|48397,False,False,America/Chicago
354,6,5,8,9,7,8,9,12,3,4,6,10,Country Village Care,721 W MULBERRY ST,,ANGLETON,TX,77515,Brazoria,77515.0,29.17431,-95.44987,Angleton,TX,Texas,True,,32554.0,57.1,48039.0,Brazoria,{'48039':100},Brazoria,48039,False,False,America/Chicago
355,0,0,1,2,3,6,7,4,1,8,10,7,"Countryside Nursing and Rehabilitation, LP",1700 N WASHINGTON ST,,PILOT POINT,TX,76258,Denton,76258.0,33.3719,-96.91965,Pilot Point,TX,Texas,True,,6876.0,28.8,48121.0,Denton,"{'48121':95.03,'48181':4.97}",Denton|Grayson,48121|48181,False,False,America/Chicago
357,0,0,0,0,1,0,1,0,1,0,1,1,Courtyard Nursing And Rehabilitation Center,7499 STANWICK DR,,HOUSTON,TX,77087,Harris,77087.0,29.686120000000006,-95.30343,Houston,TX,Texas,True,,36869.0,2113.2,48201.0,Harris,{'48201':100},Harris,48201,False,False,America/Chicago
361,0,0,0,0,0,0,2,0,0,0,0,0,Covenant Hospital Plainview,2601 DIMMITT RD,,PLAINVIEW,TX,79072,Hale,79072.0,34.17157,-101.73864,Plainview,TX,Texas,True,,26893.0,29.1,48189.0,Hale,"{'48189':99.99,'48437':0.01}",Hale|Swisher,48189|48437,False,False,America/Chicago
363,0,0,0,2,0,1,0,0,0,0,1,0,Crane Memorial Hospital,1310 S ALFORD ST,,CRANE,TX,79731,Crane,79731.0,31.418090000000007,-102.4833,Crane,TX,Texas,True,,4792.0,4.9,48103.0,Crane,"{'48103':99.95,'48461':0.05}",Crane|Upton,48103|48461,False,False,America/Chicago
365,3,0,0,0,0,0,0,0,0,0,0,0,Creekside Terrace Rehabilitation,1555 POWELL AVE,,BELTON,TX,76513,Bell,76513.0,31.05136,-97.49967,Belton,TX,Texas,True,,37916.0,125.2,48027.0,Bell,{'48027':100},Bell,48027,False,False,America/Chicago
366,0,0,1,0,0,1,0,0,0,0,0,1,Creekside Village Healthcare,914 BRAZOSPORT BLVD N,,RICHWOOD,TX,77531,Brazoria,77531.0,29.04936,-95.39242,Clute,TX,Texas,True,,16141.0,305.7,48039.0,Brazoria,{'48039':100},Brazoria,48039,False,False,America/Chicago
367,8,3,11,6,15,12,7,14,5,7,3,3,Crestview Court,224 W PLEASANT RUN RD,,CEDAR HILL,TX,75104,Dallas,75104.0,32.58039,-96.96618,Cedar Hill,TX,Texas,True,,49341.0,448.3,48113.0,Dallas,"{'48113':99.1,'48139':0.9}",Dallas|Ellis,48113|48139,False,False,America/Chicago
368,0,0,1,0,1,2,2,3,1,0,0,0,"Crestview Healthcare Residence, Ltd",1400 LAKE SHORE DR,,WACO,TX,76708,McLennan,76708.0,31.62687,-97.21135,Waco,TX,Texas,True,,27467.0,203.1,48309.0,McLennan,{'48309':100},McLennan,48309,False,False,America/Chicago
369,7,2,3,3,6,0,1,1,1,2,3,2,Crestview Manor Nursing and Rehabilitation Center,1103 MARY JANE ST,,BELTON,TX,76513,Bell,76513.0,31.05136,-97.49967,Belton,TX,Texas,True,,37916.0,125.2,48027.0,Bell,{'48027':100},Bell,48027,False,False,America/Chicago
370,7,2,2,4,2,7,7,4,4,1,2,2,Crestview Retirement Community,2505 E VILLA MARIA RD,,BRYAN,TX,77802,Brazos,77802.0,30.66126,-96.32265,Bryan,TX,Texas,True,,26128.0,765.6,48041.0,Brazos,{'48041':100},Brazos,48041,False,False,America/Chicago
371,0,1,5,4,1,2,6,2,6,2,0,5,Crestwood Health and Rehab,1448 HOUSTON ST,,WILLS POINT,TX,75169,Van Zandt,75169.0,32.70454,-95.99657,Wills Point,TX,Texas,True,,13793.0,26.4,48467.0,Van Zandt,"{'48231':12.26,'48257':4.3,'48467':83.45}",Van Zandt|Kaufman|Hunt,48467|48257|48231,False,False,America/Chicago
372,1,3,2,6,6,4,6,3,2,0,0,0,CRIMSON HEIGHTS HEALTH and WELLNESS,19279 MCKAY DR,,HUMBLE,TX,77338,,77338.0,30.00679,-95.29018,Humble,TX,Texas,True,,42787.0,495.2,48201.0,Harris,{'48201':100},Harris,48201,False,False,America/Chicago
376,0,0,1,0,0,0,0,0,0,0,0,0,Crosbyton Nursing and Rehabilitation Center,222 N FARMER ST,,CROSBYTON,TX,79322,Crosby,79322.0,33.65766,-101.18732,Crosbyton,TX,Texas,True,,1998.0,2.6,48107.0,Crosby,{'48107':100},Crosby,48107,False,False,America/Chicago
378,4,2,8,2,6,7,3,4,6,1,2,2,Cross Timbers Rehabilitation and Healthcare Center,3315 CROSS TIMBERS RD,,FLOWER MOUND,TX,75028,Denton,75028.0,33.0328,-97.06086,Flower Mound,TX,Texas,True,,46782.0,1075.2,48121.0,Denton,"{'48121':99.99,'48439':0.01}",Denton|Tarrant,48121|48439,False,False,America/Chicago
380,2,1,2,0,0,0,1,3,0,1,2,3,Crossroads Nursing And Rehabilitation,611 ROSE MARIE BLVD,,HEARNE,TX,77859,Robertson,77859.0,30.86932,-96.51734,Hearne,TX,Texas,True,,6822.0,15.9,48395.0,Robertson,"{'48041':6.46,'48395':93.54}",Robertson|Brazos,48395|48041,False,False,America/Chicago
381,0,0,1,0,0,0,0,0,0,1,0,1,Crowell Nursing Center,200 S B AVE,,CROWELL,TX,79227,Foard,79227.0,33.89959,-99.77069,Crowell,TX,Texas,True,,1431.0,0.6,48155.0,Foard,"{'48155':93.67,'48275':6.33}",Foard|Knox,48155|48275,False,False,America/Chicago
382,20,19,20,16,17,15,18,15,17,17,17,19,Crown Point Health Suites,6640 IOLA AVE,,LUBBOCK,TX,79424,Lubbock,79424.0,33.46993,-101.94095,Lubbock,TX,Texas,True,,46174.0,360.9,48303.0,Lubbock,{'48303':100},Lubbock,48303,False,False,America/Chicago
383,9,10,12,13,17,16,12,12,7,11,9,9,Crystal Creek Preston Hollow,11409 N CENTRAL EXPY,,DALLAS,TX,75243,Dallas,75243.0,32.91211,-96.73563,Dallas,TX,Texas,True,,67848.0,2459.0,48113.0,Dallas,{'48113':100},Dallas,48113,False,False,America/Chicago
384,2,1,1,5,1,1,1,0,4,2,2,2,Cuero Partners,1310 E BROADWAY ST,,CUERO,TX,77954,DeWitt,77954.0,29.096740000000004,-97.28269,Cuero,TX,Texas,True,,11939.0,12.0,48123.0,DeWitt,"{'48123':99.86,'48177':0.14}",DeWitt|Gonzales,48123|48177,False,False,America/Chicago
386,3,1,1,2,1,1,0,0,0,0,0,0,Cypress Creek Rehabilitation and Healthcare Center,13600 BIRDCALL LN,,CYPRESS,TX,77429,,77429.0,29.99104,-95.65878,Cypress,TX,Texas,True,,88344.0,729.5,48201.0,Harris,{'48201':100},Harris,48201,False,False,America/Chicago
389,1,6,1,3,3,1,0,0,0,0,1,2,Cypress Woods Care Center,135 1 2 E HOSPITAL DR,,ANGLETON,TX,77515,Brazoria,77515.0,29.17431,-95.44987,Angleton,TX,Texas,True,,32554.0,57.1,48039.0,Brazoria,{'48039':100},Brazoria,48039,False,False,America/Chicago
390,2,0,0,0,0,0,0,0,0,1,0,0,Cypresswood Health and Rehabilitation Center,10851 CRESCENT MOON DR,,HOUSTON,TX,77064,Harris,77064.0,29.92218,-95.54705,Houston,TX,Texas,True,,49790.0,1201.3,48201.0,Harris,{'48201':100},Harris,48201,False,False,America/Chicago
394,4,3,3,5,5,5,5,6,6,7,7,5,Deer Creek of Wimberley Nursing Center,555 FM 3237,,WIMBERLEY,TX,78676,Hays,78676.0,30.03288,-98.1459,Wimberley,TX,Texas,True,,12868.0,29.0,48209.0,Hays,"{'48031':0.24,'48209':99.76}",Hays|Blanco,48209|48031,False,False,America/Chicago
395,5,7,14,7,20,8,9,7,7,8,7,12,Deerbrook Skilled Nursing And Rehabilitation,9250 FM 1960 RD W,,HUMBLE,TX,77338,Harris,77338.0,30.00679,-95.29018,Humble,TX,Texas,True,,42787.0,495.2,48201.0,Harris,{'48201':100},Harris,48201,False,False,America/Chicago
396,0,2,3,1,1,1,0,1,2,2,0,4,"Deerings Nursing and Rehabilitation, LP",1020 W COUNTY RD N,,ODESSA,TX,79763,Ector,79763.0,31.79918,-102.46788,Odessa,TX,Texas,True,,38955.0,242.3,48135.0,Ector,{'48135':100},Ector,48135,False,False,America/Chicago
397,3,2,4,2,3,1,0,3,3,3,5,4,Del Rio Nursing and Rehabilitation Center,301 W MARTIN ST,,DEL RIO,TX,78840,Val Verde,78840.0,29.74211,-100.88273,Del Rio,TX,Texas,True,,48143.0,19.5,48465.0,Val Verde,{'48465':100},Val Verde,48465,False,False,America/Chicago
398,0,5,4,1,2,1,1,1,4,2,0,1,"DeLeon Nursing and Rehabilitation, LP",809 E NAVARRO AVE,,DE LEON,TX,76444,Comanche,76444.0,32.114709999999995,-98.56571,De Leon,TX,Texas,True,,3585.0,9.7,48093.0,Comanche,{'48093':100},Comanche,48093,False,False,America/Chicago
399,0,0,0,2,0,0,0,1,1,1,1,0,"Denison Nursing and Rehabilitation, LP",601 E US HIGHWAY 69,,DENISON,TX,75021,Grayson,75021.0,33.72616,-96.47326,Denison,TX,Texas,True,,8950.0,51.6,48181.0,Grayson,{'48181':100},Grayson,48181,False,False,America/Chicago
400,9,13,5,8,14,13,7,10,10,4,6,2,Denton Rehabilitation and Nursing Center,2229 N CARROLL BLVD,,DENTON,TX,76201,Denton,76201.0,33.22113,-97.14723,Denton,TX,Texas,True,,27965.0,1876.1,48121.0,Denton,{'48121':100},Denton,48121,False,False,America/Chicago
403,0,0,0,0,0,1,1,1,0,0,0,0,Desoto Nursing And Rehabilitation,1101 N HAMPTON RD,,DESOTO,TX,75115,Dallas,75115.0,32.59884,-96.86375,Desoto,TX,Texas,True,,52833.0,860.5,48113.0,Dallas,{'48113':100},Dallas,48113,False,False,America/Chicago
406,0,1,0,1,0,1,0,0,2,5,2,2,Devine Health and Rehabilitation,104 ENTERPRISE AVE,,DEVINE,TX,78016,Medina,78016.0,29.18359,-98.96601,Devine,TX,Texas,True,,10026.0,23.4,48325.0,Medina,{'48325':100},Medina,48325,False,False,America/Chicago
407,1,1,1,2,2,2,2,1,1,1,1,2,Dfw Nursing And Rehabilitation,900 W LEUDA ST,,FORT WORTH,TX,76104,Tarrant,76104.0,32.7287,-97.31777,Fort Worth,TX,Texas,True,,18327.0,1149.3,48439.0,Tarrant,{'48439':100},Tarrant,48439,False,False,America/Chicago
408,1,3,2,2,1,0,0,1,3,2,0,0,Dimmit Regional Hospital,704 HOSPITAL DR,,CARRIZO SPRINGS,TX,78834,Dimmit,78834.0,28.46432,-99.92139,Carrizo Springs,TX,Texas,True,,8549.0,5.4,48127.0,Dimmit,{'48127':100},Dimmit,48127,False,False,America/Chicago
409,2,3,4,5,6,2,3,1,5,3,2,0,Diversicare of Lake Highlands,9009 WHITE ROCK TRL,,DALLAS,TX,75238,Dallas,75238.0,32.87853,-96.70782,Dallas,TX,Texas,True,,33220.0,1789.6,48113.0,Dallas,{'48113':100},Dallas,48113,False,False,America/Chicago
410,0,0,0,2,1,2,1,2,2,3,1,1,Diversicare of Luling,208 MAPLE ST,,LULING,TX,78648,Caldwell,78648.0,29.69106,-97.6345,Luling,TX,Texas,True,,8150.0,20.4,48055.0,Caldwell,"{'48055':93.58,'48177':2.06,'48187':4.36}",Caldwell|Guadalupe|Gonzales,48055|48187|48177,False,False,America/Chicago
415,0,1,1,2,2,2,3,3,2,3,2,2,Dogwood Trails Manor,647 US HIGHWAY 190 W,,WOODVILLE,TX,75979,Tyler,75979.0,30.7763,-94.4015,Woodville,TX,Texas,True,,11852.0,15.2,48457.0,Tyler,{'48457':100},Tyler,48457,False,False,America/Chicago
416,1,0,1,0,0,0,0,0,0,0,0,0,Dovehill Healthcare Center and Villas,1315 E STATE HIGHWAY 22,,HAMILTON,TX,76531,Hamilton,76531.0,31.6858,-98.18813,Hamilton,TX,Texas,True,,4740.0,5.0,48193.0,Hamilton,"{'48193':99.94,'48333':0.06}",Hamilton|Mills,48193|48333,False,False,America/Chicago
417,1,1,2,2,1,1,1,1,1,1,1,1,Downtown Health and Rehabilitation Center,424 S ADAMS ST,,FORT WORTH,TX,76104,Tarrant,76104.0,32.7287,-97.31777,Fort Worth,TX,Texas,True,,18327.0,1149.3,48439.0,Tarrant,{'48439':100},Tarrant,48439,False,False,America/Chicago
418,2,3,4,2,1,4,5,7,2,2,0,0,Duncanville Healthcare and Rehabilitation Center,419 S COCKRELL HILL RD,,DUNCANVILLE,TX,75116,Dallas,75116.0,32.66017,-96.91393,Duncanville,TX,Texas,True,,20044.0,1482.8,48113.0,Dallas,{'48113':100},Dallas,48113,False,False,America/Chicago
419,0,0,1,3,1,3,0,0,0,0,2,3,Eagle Lake Nursing And Rehabilitation,535 S AUSTIN RD,,EAGLE LAKE,TX,77434,Colorado,77434.0,29.52568,-96.30213,Eagle Lake,TX,Texas,True,,4765.0,9.7,48089.0,Colorado,"{'48089':89.66,'48481':10.34}",Colorado|Wharton,48089|48481,False,False,America/Chicago
421,4,4,3,4,1,5,2,3,1,2,2,3,Eagle Pass Nursing and Rehabilitation,2550 ZACATECAS DR,,EAGLE PASS,TX,78852,Maverick,78852.0,28.75206,-100.31076,Eagle Pass,TX,Texas,True,,56838.0,35.8,48323.0,Maverick,{'48323':100},Maverick,48323,False,False,America/Chicago
422,2,1,0,3,1,0,1,3,2,1,2,6,Eagles Trace,14703 EAGLE VISTA DR,,HOUSTON,TX,77077,Harris,77077.0,29.750120000000006,-95.61547,Houston,TX,Texas,True,,58131.0,2302.4,48201.0,Harris,{'48201':100},Harris,48201,False,False,America/Chicago
423,0,0,1,1,0,3,4,1,2,2,1,1,Eastland Memorial Hospital,304 S DAUGHERTY AVE,,EASTLAND,TX,76448,Eastland,76448.0,32.40016,-98.80082,Eastland,TX,Texas,True,,5547.0,17.2,48133.0,Eastland,{'48133':100},Eastland,48133,False,False,America/Chicago
424,1,1,0,0,2,0,0,0,0,0,2,1,Eastland Nursing and Rehabilitation,700 S OSTROM AVE,,EASTLAND,TX,76448,Eastland,76448.0,32.40016,-98.80082,Eastland,TX,Texas,True,,5547.0,17.2,48133.0,Eastland,{'48133':100},Eastland,48133,False,False,America/Chicago
426,5,6,4,5,6,4,5,8,8,7,7,5,Ebony Lake Nursing and Rehabilitation Center,1001 CENTRAL BLVD,,BROWNSVILLE,TX,78520,Cameron,78520.0,25.96396,-97.55009,Brownsville,TX,Texas,True,,62414.0,627.8,48061.0,Cameron,{'48061':100},Cameron,48061,False,False,America/Chicago
427,10,5,8,9,9,7,7,6,11,7,9,5,"Eden Home, Inc",631 LAKEVIEW BLVD,,NEW BRAUNFELS,TX,78130,Comal,78130.0,29.69772,-98.0702,New Braunfels,TX,Texas,True,,74172.0,249.0,48091.0,Comal,"{'48091':71.41,'48187':28.59}",Comal|Guadalupe,48091|48187,False,False,America/Chicago
429,2,1,2,0,2,0,2,0,2,0,2,0,Edgewater Care Center,1213 WATER ST,,KERRVILLE,TX,78028,Kerr,78028.0,30.03422,-99.15819,Kerrville,TX,Texas,True,,40447.0,57.9,48265.0,Kerr,"{'48171':1.96,'48265':98.04}",Kerr|Gillespie,48265|48171,False,False,America/Chicago
430,4,3,4,5,3,2,0,6,1,4,0,1,Edgewood Manor Nursing Home,4925 ELIZABETH ST,,TEXARKANA,TX,75503,Bowie,75503.0,33.51343,-94.13057,Texarkana,TX,Texas,True,,25710.0,119.2,48037.0,Bowie,{'48037':100},Bowie,48037,False,False,America/Chicago
431,1,3,1,5,3,5,2,4,1,2,2,3,Edgewood Rehabilitation and Care Center,1101 WINDBELL ST,,MESQUITE,TX,75149,Dallas,75149.0,32.77003,-96.61487,Mesquite,TX,Texas,True,,54979.0,1363.2,48113.0,Dallas,{'48113':100},Dallas,48113,False,False,America/Chicago
432,0,0,2,1,1,0,4,1,3,2,1,4,Edinburg Nursing and Rehabilitation Center,5215 S SUGAR RD,,EDINBURG,TX,78539,Hidalgo,78539.0,26.27915,-98.18321,Edinburg,TX,Texas,True,,35321.0,904.5,48215.0,Hidalgo,{'48215':100},Hidalgo,48215,False,False,America/Chicago
435,0,1,1,1,2,1,0,3,2,1,0,1,El Campo Memorial Hospital,303 SANDY CORNER RD,,EL CAMPO,TX,77437,Wharton,77437.0,29.213040000000003,-96.28036,El Campo,TX,Texas,True,,16906.0,20.5,48481.0,Wharton,{'48481':100},Wharton,48481,False,False,America/Chicago
436,6,4,9,5,9,7,6,3,5,9,12,8,El Paso Health and Rehabilitation Center,11525 VISTA DEL SOL DR,,EL PASO,TX,79936,El Paso,79936.0,31.77618,-106.29785,El Paso,TX,Texas,True,,112355.0,1610.6,48141.0,El Paso,{'48141':100},El Paso,48141,False,False,America/Denver
437,0,1,0,0,0,2,0,2,1,0,0,0,Electra Healthcare Center,511 S BAILEY ST,,ELECTRA,TX,76360,Wichita,76360.0,33.96894,-98.96631,Electra,TX,Texas,True,,3533.0,4.8,48485.0,Wichita,"{'48009':1.63,'48485':95.06,'48487':3.31}",Wichita|Wilbarger|Archer,48485|48487|48009,False,False,America/Chicago
438,0,1,1,2,1,1,0,0,0,0,0,0,Electra Memorial Hospital,1207 S BAILEY ST,,ELECTRA,TX,76360,Wichita,76360.0,33.96894,-98.96631,Electra,TX,Texas,True,,3533.0,4.8,48485.0,Wichita,"{'48009':1.63,'48485':95.06,'48487':3.31}",Wichita|Wilbarger|Archer,48485|48487|48009,False,False,America/Chicago
439,2,2,1,4,3,1,2,4,5,4,1,2,Elgin Nursing and Rehabilitation Center,1373 N AVENUE C,,ELGIN,TX,78621,Bastrop,78621.0,30.3385,-97.36146,Elgin,TX,Texas,True,,23496.0,44.8,48021.0,Bastrop,"{'48021':71.45,'48287':2.65,'48453':23.69,'48491':2.21}",Bastrop|Travis|Lee|Williamson,48021|48453|48287|48491,False,False,America/Chicago
441,0,1,1,0,0,0,0,0,1,0,1,0,Elkhart Oaks Care Center,214 JONES RD,,ELKHART,TX,75839,Anderson,75839.0,31.606,-95.5779,Elkhart,TX,Texas,True,,5330.0,13.3,48001.0,Anderson,"{'48001':99.31,'48225':0.69}",Anderson|Houston,48001|48225,False,False,America/Chicago
443,4,3,2,1,1,4,9,2,1,4,7,6,Emerald Hills Rehabilitation and Healthcare Center,5600 DAVIS BLVD,,NORTH RICHLAND HILLS,TX,76180,Tarrant,76180.0,32.83996,-97.22499,North Richland Hills,TX,Texas,True,,36964.0,1370.3,48439.0,Tarrant,{'48439':100},Tarrant,48439,False,False,America/Chicago
445,0,2,1,2,2,2,1,1,0,2,0,0,Ennis Care Center,1200 S HALL ST,,ENNIS,TX,75119,Ellis,75119.0,32.32976,-96.59334,Ennis,TX,Texas,True,,28319.0,38.8,48139.0,Ellis,"{'48139':99.3,'48349':0.7}",Ellis|Navarro,48139|48349,False,False,America/Chicago
447,3,0,1,0,2,4,3,2,2,3,2,4,Epic Nursing And Rehabilitation,3210 W STATE HIGHWAY 22,,CORSICANA,TX,75110,Navarro,75110.0,32.086929999999995,-96.52879,Corsicana,TX,Texas,True,,29213.0,72.4,48349.0,Navarro,{'48349':100},Navarro,48349,False,False,America/Chicago
448,2,1,2,2,2,2,3,4,4,3,2,3,Estates Healthcare and Rehabilitation Center,201 SYCAMORE SCHOOL RD,,FORT WORTH,TX,76134,Tarrant,76134.0,32.64274,-97.33353,Fort Worth,TX,Texas,True,,26484.0,1147.8,48439.0,Tarrant,{'48439':100},Tarrant,48439,False,False,America/Chicago
450,0,5,2,4,5,7,4,6,4,4,3,3,Estrella Oaks Rehabilitation And Care Center,4011 WILLIAMS DR,,GEORGETOWN,TX,78628,Williamson,78628.0,30.64109,-97.75111,Georgetown,TX,Texas,True,,32946.0,124.9,48491.0,Williamson,{'48491':100},Williamson,48491,False,False,America/Chicago
451,0,0,1,1,0,0,0,0,0,0,0,0,Evergreen Healthcare Center,406 E 7TH ST,,BURKBURNETT,TX,76354,Wichita,76354.0,34.09738,-98.62144,Burkburnett,TX,Texas,True,,12021.0,55.4,48485.0,Wichita,{'48485':100},Wichita,48485,False,False,America/Chicago
453,2,2,2,2,1,2,4,1,0,1,0,2,Fairfield Nursing and Rehabilitation Center,420 MOODY ST,,FAIRFIELD,TX,75840,Freestone,75840.0,31.78236,-96.089,Fairfield,TX,Texas,True,,6627.0,10.0,48161.0,Freestone,{'48161':100},Freestone,48161,False,False,America/Chicago
454,1,1,1,1,0,1,0,0,1,1,1,0,"Fairview Healthcare Residence, Ltd",601 E REUNION ST,,FAIRFIELD,TX,75840,Freestone,75840.0,31.78236,-96.089,Fairfield,TX,Texas,True,,6627.0,10.0,48161.0,Freestone,{'48161':100},Freestone,48161,False,False,America/Chicago
456,0,1,1,1,0,1,0,0,0,0,1,0,Faith Community Hospital,215 CHISHOLM TRL,,JACKSBORO,TX,76458,Jack,76458.0,33.21795,-98.1877,Jacksboro,TX,Texas,True,,6025.0,4.3,48237.0,Jack,{'48237':100},Jack,48237,False,False,America/Chicago
458,0,1,3,2,4,6,3,4,1,0,0,1,Faith Memorial Nursing Home,811 GARNER RD,,PASADENA,TX,77502,Harris,77502.0,29.67951,-95.19977,Pasadena,TX,Texas,True,,38272.0,2612.7,48201.0,Harris,{'48201':100},Harris,48201,False,False,America/Chicago
459,0,0,0,0,0,0,0,0,0,0,1,0,Falcon Lake Nursing Home,200 CARLA ST,,ZAPATA,TX,78076,Zapata,78076.0,26.93098,-99.15507,Zapata,TX,Texas,True,,13184.0,10.2,48505.0,Zapata,{'48505':100},Zapata,48505,False,False,America/Chicago
460,2,1,2,2,2,0,2,1,3,2,5,2,Falcon Ridge Rehabilitation,149 KLATTENHOFF LN,,HUTTO,TX,78634,Williamson,78634.0,30.55906,-97.54472,Hutto,TX,Texas,True,,30934.0,138.2,48491.0,Williamson,"{'48453':1.68,'48491':98.32}",Williamson|Travis,48491|48453,False,False,America/Chicago
461,2,2,1,3,1,3,1,1,0,2,0,2,Falfurrias Nursing And Rehabilitation,1301 S TERRELL ST,,FALFURRIAS,TX,78355,Brooks,78355.0,27.19012,-98.20251,Falfurrias,TX,Texas,True,,7156.0,8.0,48047.0,Brooks,"{'48047':95.74,'48249':4.17,'48273':0.1}",Brooks|Jim Wells|Kleberg,48047|48249|48273,False,False,America/Chicago
463,0,0,0,0,0,1,7,8,9,3,4,8,Fall Creek Rehabilitation and Healthcare Center,14949 MESA DR,,HUMBLE,TX,77396,,77396.0,29.94821,-95.25987,Humble,TX,Texas,True,,57775.0,623.7,48201.0,Harris,{'48201':100},Harris,48201,False,False,America/Chicago
464,4,4,5,4,4,3,1,1,1,1,0,0,Fall Creek Rehabilitation And Healthcare Center,14949 MESA DR,,HUMBLE,TX,77396,Harris,77396.0,29.94821,-95.25987,Humble,TX,Texas,True,,57775.0,623.7,48201.0,Harris,{'48201':100},Harris,48201,False,False,America/Chicago
466,3,4,5,4,4,3,2,0,1,2,0,0,Farmersville Health And Rehabilitation,205 BEECH ST,,FARMERSVILLE,TX,75442,Collin,75442.0,33.17365,-96.35309,Farmersville,TX,Texas,True,,9681.0,32.4,48085.0,Collin,"{'48085':89.03,'48231':10.97}",Collin|Hunt,48085|48231,False,False,America/Chicago
467,1,1,1,0,1,0,1,0,1,0,1,0,Farwell Care and Rehabilitation Center,305 5TH ST,,FARWELL,TX,79325,Parmer,79325.0,34.41493,-102.94,Farwell,TX,Texas,True,,2361.0,5.0,48369.0,Parmer,"{'48017':0.99,'48369':99.01}",Parmer|Bailey,48369|48017,False,False,America/Chicago
468,0,1,1,0,1,2,1,0,0,1,1,1,Fireside Lodge Healthcare Center,4800 WHITE SETTLEMENT RD,,FORT WORTH,TX,76114,Tarrant,76114.0,32.77444000000001,-97.40272,Fort Worth,TX,Texas,True,,25416.0,1046.0,48439.0,Tarrant,{'48439':100},Tarrant,48439,False,False,America/Chicago
471,2,0,2,0,0,0,1,1,1,0,0,0,Flatonia Oak Manor Rehabilitation and Nursing Center,624 N CONVERSE ST,,FLATONIA,TX,78941,Fayette,78941.0,29.74273,-97.15231,Flatonia,TX,Texas,True,,3143.0,7.3,48149.0,Fayette,"{'48021':2.9,'48149':94.26,'48177':2.84}",Fayette|Bastrop|Gonzales,48149|48021|48177,False,False,America/Chicago
472,1,4,1,2,1,2,0,0,0,1,2,3,Floresville Nursing and Rehabilitation Center,1811 6TH ST,,FLORESVILLE,TX,78114,Wilson,78114.0,29.11822,-98.2018,Floresville,TX,Texas,True,,23091.0,21.2,48493.0,Wilson,"{'48013':0.69,'48493':99.31}",Wilson|Atascosa,48493|48013,False,False,America/Chicago
474,2,4,3,1,2,2,2,1,0,0,0,0,Focus Care at Baytown,2000 BEAUMONT RD,,BAYTOWN,TX,77520,,77520.0,29.73897,-94.9983,Baytown,TX,Texas,True,,35970.0,589.1,48201.0,Harris,{'48201':100},Harris,48201,False,False,America/Chicago
475,0,2,0,4,0,1,0,2,0,1,1,1,Focus Care at Linden,1201 W HOUSTON ST,,LINDEN,TX,75563,Cass,75563.0,33.00609,-94.38963,Linden,TX,Texas,True,,4709.0,10.2,48067.0,Cass,{'48067':100},Cass,48067,False,False,America/Chicago
476,3,3,4,6,8,5,2,3,2,1,3,2,Focus Care Gilmer,623 STATE HIGHWAY 155 N,,GILMER,TX,75644,Upshur,75644.0,32.7951,-94.99552,Gilmer,TX,Texas,True,,13387.0,23.6,48459.0,Upshur,{'48459':100},Upshur,48459,False,False,America/Chicago
477,2,3,2,3,1,2,4,3,0,0,1,0,Focused Care At Allenbrook,4109 ALLENBROOK DR,,BAYTOWN,TX,77521,Harris,77521.0,29.79849,-94.96589,Baytown,TX,Texas,True,,59722.0,460.6,48201.0,Harris,"{'48071':5.91,'48201':94.09}",Harris|Chambers,48201|48071,False,False,America/Chicago
478,1,1,0,2,0,0,0,0,1,0,2,0,Focused Care At Baytown,2000 BEAUMONT RD,,BAYTOWN,TX,77520,Harris,77520.0,29.73897,-94.9983,Baytown,TX,Texas,True,,35970.0,589.1,48201.0,Harris,{'48201':100},Harris,48201,False,False,America/Chicago
479,4,6,5,4,2,1,2,6,13,12,10,7,Focused Care at Burnet Bay,3921 N MAIN ST,,BAYTOWN,TX,77521,Harris,77521.0,29.79849,-94.96589,Baytown,TX,Texas,True,,59722.0,460.6,48201.0,Harris,"{'48071':5.91,'48201':94.09}",Harris|Chambers,48201|48071,False,False,America/Chicago
480,1,4,5,6,0,1,1,2,6,5,8,9,Focused Care at Cedar Bayou,2000 W BAKER RD,,BAYTOWN,TX,77521,Harris,77521.0,29.79849,-94.96589,Baytown,TX,Texas,True,,59722.0,460.6,48201.0,Harris,"{'48071':5.91,'48201':94.09}",Harris|Chambers,48201|48071,False,False,America/Chicago
481,2,0,1,0,1,1,3,0,2,8,9,10,Focused Care At Clarksville,2407 W MAIN ST,,CLARKSVILLE,TX,75426,Red River,75426.0,33.655390000000004,-95.00488,Clarksville,TX,Texas,True,,4625.0,6.3,48387.0,Red River,{'48387':100},Red River,48387,False,False,America/Chicago
482,0,0,0,0,0,0,0,1,2,1,1,3,Focused Care at Corpus,801 CANTWELL LN,,CORPUS CHRISTI,TX,78408,Nueces,78408.0,27.795,-97.44693,Corpus Christi,TX,Texas,True,,11787.0,1048.2,48355.0,Nueces,{'48355':100},Nueces,48355,False,False,America/Chicago
483,0,0,1,0,0,2,0,1,1,1,1,1,Focused Care At Fort Stockton,501 N SYCAMORE ST,,FORT STOCKTON,TX,79735,Pecos,79735.0,30.74292,-102.78315,Fort Stockton,TX,Texas,True,,13734.0,3.0,48371.0,Pecos,"{'48043':0.02,'48371':99.98}",Pecos|Brewster,48371|48043,False,False,America/Chicago
484,0,0,3,1,1,0,0,2,1,1,1,0,FOCUSED CARE AT HUNTSVILLE,1302 NOTTINGHAM ST,,HUNTSVILLE,TX,77340,,77340.0,30.643690000000007,-95.53981,Huntsville,TX,Texas,True,,30866.0,52.9,48471.0,Walker,{'48471':100},Walker,48471,False,False,America/Chicago
485,1,0,4,2,1,1,1,1,1,2,1,2,Focused Care At Huntsville,1302 NOTTINGHAM ST,,HUNTSVILLE,TX,77340,Walker,77340.0,30.643690000000007,-95.53981,Huntsville,TX,Texas,True,,30866.0,52.9,48471.0,Walker,{'48471':100},Walker,48471,False,False,America/Chicago
486,0,1,1,1,2,1,0,0,2,0,0,0,Focused Care At Lamesa,1201 N 15TH ST,,LAMESA,TX,79331,Dawson,79331.0,32.69327,-102.01053,Lamesa,TX,Texas,True,,12561.0,6.8,48115.0,Dawson,"{'48115':98.97,'48165':0.44,'48317':0.59}",Dawson|Martin|Gaines,48115|48317|48165,False,False,America/Chicago
487,0,0,0,0,1,1,0,0,0,0,0,0,Focused Care At Midland,2000 N MAIN ST,,MIDLAND,TX,79705,Midland,79705.0,32.051140000000004,-102.05955,Midland,TX,Texas,True,,41242.0,365.0,48329.0,Midland,{'48329':100},Midland,48329,False,False,America/Chicago
488,4,2,2,1,0,1,0,1,0,0,0,0,Focused Care at Mount Pleasant,1606 MEMORIAL AVE,,MOUNT PLEASANT,TX,75455,Titus,75455.0,33.21697,-94.97819,Mount Pleasant,TX,Texas,True,,28460.0,37.0,48449.0,Titus,"{'48159':0.25,'48449':99.75}",Titus|Franklin,48449|48159,False,False,America/Chicago
489,1,0,1,0,0,2,3,3,4,2,3,2,Focused Care At Odessa,2443 W 16TH ST,,ODESSA,TX,79763,Ector,79763.0,31.79918,-102.46788,Odessa,TX,Texas,True,,38955.0,242.3,48135.0,Ector,{'48135':100},Ector,48135,False,False,America/Chicago
490,1,5,3,2,2,3,1,2,2,3,1,4,Focused Care at Orange,4201 FM 105,,ORANGE,TX,77630,Orange,77630.0,30.0711,-93.86461,Orange,TX,Texas,True,,29026.0,114.2,48361.0,Orange,{'48361':100},Orange,48361,False,False,America/Chicago
491,5,4,6,4,7,5,8,9,9,9,13,10,Focused Care at Pasadena,3434 WATTERS RD,,PASADENA,TX,77504,Harris,77504.0,29.64802,-95.18998,Pasadena,TX,Texas,True,,23875.0,1712.9,48201.0,Harris,{'48201':100},Harris,48201,False,False,America/Chicago
492,0,0,0,0,0,0,0,1,1,0,0,0,Focused Care At Pecos,1819 S MEMORIAL DR,,PECOS,TX,79772,Reeves,79772.0,31.425390000000004,-103.62296,Pecos,TX,Texas,True,,13875.0,4.3,48389.0,Reeves,"{'48109':0,'48389':99.72,'48475':0.28}",Reeves|Ward|Culberson,48389|48475|48109,False,False,America/Chicago
493,1,1,2,2,0,0,1,0,1,1,1,1,Focused Care at Sherman,817 W CENTER ST,,SHERMAN,TX,75092,Grayson,75092.0,33.64891,-96.70004,Sherman,TX,Texas,True,,24575.0,77.8,48181.0,Grayson,{'48181':100},Grayson,48181,False,False,America/Chicago
494,4,2,6,5,8,5,2,3,2,1,0,0,Focused Care at Summer Place,2485 S MAJOR DR,,BEAUMONT,TX,77707,Jefferson,77707.0,30.05295,-94.17654,Beaumont,TX,Texas,True,,18609.0,446.2,48245.0,Jefferson,{'48245':100},Jefferson,48245,False,False,America/Chicago
495,1,4,1,0,1,0,0,0,1,0,0,0,Focused Care At Waxahachie,1413 W MAIN ST,,WAXAHACHIE,TX,75165,Ellis,75165.0,32.36912,-96.79744,Waxahachie,TX,Texas,True,,43498.0,130.4,48139.0,Ellis,{'48139':100},Ellis,48139,False,False,America/Chicago
496,1,4,3,5,4,2,2,0,1,1,1,2,Focused Care at Webster,17231 MILL FOREST RD,,WEBSTER,TX,77598,Harris,77598.0,29.53781,-95.13687,Webster,TX,Texas,True,,26473.0,735.4,48201.0,Harris,{'48201':100},Harris,48201,False,False,America/Chicago
497,3,4,5,4,5,2,2,4,6,4,1,2,Focused Care at Westwood,8702 S COURSE DR,,HOUSTON,TX,77099,Harris,77099.0,29.67076,-95.58512,Houston,TX,Texas,True,,53357.0,2925.2,48201.0,Harris,"{'48157':4.41,'48201':95.59}",Harris|Fort Bend,48201|48157,False,False,America/Chicago
498,2,3,2,6,6,3,2,5,6,3,4,2,Focused Care Of Center,501 TIMPSON ST,,CENTER,TX,75935,Shelby,75935.0,31.73268,-94.20157,Center,TX,Texas,True,,14025.0,14.9,48419.0,Shelby,"{'48405':1.22,'48419':98.78}",Shelby|San Augustine,48419|48405,False,False,America/Chicago
501,0,3,0,4,4,2,3,1,2,1,2,1,Fort Bend Healthcare Center,3010 BAMORE RD,,ROSENBERG,TX,77471,Fort Bend,77471.0,29.54596,-95.86816,Rosenberg,TX,Texas,True,,41139.0,157.6,48157.0,Fort Bend,{'48157':100},Fort Bend,48157,False,False,America/Chicago
505,7,11,18,10,18,16,12,14,6,6,5,6,Fort Worth Transitional Care Center,850 12TH AVE,,FORT WORTH,TX,76104,Tarrant,76104.0,32.7287,-97.31777,Fort Worth,TX,Texas,True,,18327.0,1149.3,48439.0,Tarrant,{'48439':100},Tarrant,48439,False,False,America/Chicago
506,2,3,5,3,2,2,3,1,0,1,2,6,Fort Worth Wellness And Rehabilitation,2129 SKYLINE DR,,FORT WORTH,TX,76114,Tarrant,76114.0,32.77444000000001,-97.40272,Fort Worth,TX,Texas,True,,25416.0,1046.0,48439.0,Tarrant,{'48439':100},Tarrant,48439,False,False,America/Chicago
507,1,0,0,0,0,1,0,0,1,1,1,1,"Fortress Health and Rehab of Rock Prairie, LLC",1105 ROCK PRAIRIE RD,,COLLEGE STATION,TX,77845,Brazos,77845.0,30.56255,-96.27564,College Station,TX,Texas,True,,63078.0,128.0,48041.0,Brazos,{'48041':100},Brazos,48041,False,False,America/Chicago
508,4,10,8,3,4,3,6,5,4,1,1,0,Forum Parkway Health and Rehabilitation,2112 FORUM PKWY,,BEDFORD,TX,76021,Tarrant,76021.0,32.85231,-97.13119,Bedford,TX,Texas,True,,35741.0,1793.8,48439.0,Tarrant,{'48439':100},Tarrant,48439,False,False,America/Chicago
509,0,3,1,2,1,1,1,4,5,7,6,4,Founders Plaza Nursing and Rehabilitation,721 S HIGHWAY 78,,WYLIE,TX,75098,Dallas,75098.0,33.01189,-96.53479,Wylie,TX,Texas,True,,56764.0,565.0,48085.0,Collin,"{'48085':93.4,'48113':3.76,'48397':2.84}",Collin|Dallas|Rockwall,48085|48113|48397,False,False,America/Chicago
510,17,18,11,18,13,21,18,20,17,18,20,22,FOX HOLLOW POST ACUTE,310 AMERICA DR,,BROWNSVILLE,TX,78526,,78526.0,25.99101,-97.43946,Brownsville,TX,Texas,True,,46799.0,371.6,48061.0,Cameron,{'48061':100},Cameron,48061,False,False,America/Chicago
511,1,1,1,0,0,0,0,0,0,0,0,0,Frank M Tejeda Texas State Veterans Home,200 VETERANS DR,,FLORESVILLE,TX,78114,Wilson,78114.0,29.11822,-98.2018,Floresville,TX,Texas,True,,23091.0,21.2,48493.0,Wilson,"{'48013':0.69,'48493':99.31}",Wilson|Atascosa,48493|48013,False,False,America/Chicago
512,3,2,2,2,1,1,2,5,2,4,3,2,Franklin Heights Nursing and Rehabilitation Center,223 S RESLER DR,,EL PASO,TX,79912,El Paso,79912.0,31.84821,-106.53264,El Paso,TX,Texas,True,,80264.0,1257.8,48141.0,El Paso,{'48141':100},El Paso,48141,False,False,America/Denver
513,2,0,1,0,0,0,0,1,2,1,0,1,Franklin Nursing Home,700 N HEARNE ST,,FRANKLIN,TX,77856,Robertson,77856.0,31.07333,-96.42385,Franklin,TX,Texas,True,,5348.0,5.0,48395.0,Robertson,{'48395':100},Robertson,48395,False,False,America/Chicago
515,1,1,2,0,2,1,1,0,1,0,1,0,Fredericksburg Nursing And Rehabilitation,1117 S ADAMS ST,,FREDERICKSBURG,TX,78624,Gillespie,78624.0,30.28151,-98.87712,Fredericksburg,TX,Texas,True,,21945.0,11.7,48171.0,Gillespie,"{'48171':97.94,'48259':2.06}",Gillespie|Kendall,48171|48259,False,False,America/Chicago
516,7,10,11,15,15,17,13,20,19,20,15,16,Friendship Haven Healthcare and Rehabilitation Center,1500 SUNSET DR,,FRIENDSWOOD,TX,77546,Galveston,77546.0,29.51492,-95.19219,Friendswood,TX,Texas,True,,53320.0,697.9,48167.0,Galveston,"{'48167':53.56,'48201':46.44}",Galveston|Harris,48167|48201,False,False,America/Chicago
518,2,1,2,2,0,0,0,0,0,1,1,1,Frio Regional Hospital,200 S INTERSTATE 35,,PEARSALL,TX,78061,Frio,78061.0,28.90171,-99.14689,Pearsall,TX,Texas,True,,13034.0,7.7,48163.0,Frio,{'48163':100},Frio,48163,False,False,America/Chicago
519,1,0,6,2,2,2,0,0,0,1,3,5,Gainesville Health and Rehabilitation Center,1900 ONEAL ST,,GAINESVILLE,TX,76240,Cooke,76240.0,33.65629000000001,-97.17453,Gainesville,TX,Texas,True,,27419.0,27.3,48097.0,Cooke,{'48097':100},Cooke,48097,False,False,America/Chicago
520,0,0,2,4,2,2,2,1,1,3,1,2,Galleria Residence and Rehabilitation Center,2808 STONEY BROOK DR,,HOUSTON,TX,77063,Harris,77063.0,29.73555,-95.52161,Houston,TX,Texas,True,,38961.0,2889.2,48201.0,Harris,{'48201':100},Harris,48201,False,False,America/Chicago
521,0,0,0,2,2,0,2,2,0,0,1,1,Ganado Nursing And Rehabilitation Center,107 E ROGERS ST,,GANADO,TX,77962,Jackson,77962.0,29.02263,-96.48946,Ganado,TX,Texas,True,,3704.0,7.7,48239.0,Jackson,{'48239':100},Jackson,48239,False,False,America/Chicago
522,6,3,5,3,6,12,7,12,4,5,3,3,Garden Terrace At Fort Worth,7500 OAKMONT BLVD,,FORT WORTH,TX,76132,Tarrant,76132.0,32.667590000000004,-97.41797,Fort Worth,TX,Texas,True,,27058.0,1302.0,48439.0,Tarrant,{'48439':100},Tarrant,48439,False,False,America/Chicago
523,18,18,22,14,19,17,14,15,21,15,14,14,Garden Terrace At Houston,7887 CAMBRIDGE ST,,HOUSTON,TX,77054,Harris,77054.0,29.68088,-95.40493,Houston,TX,Texas,True,,22704.0,1536.9,48201.0,Harris,{'48201':100},Harris,48201,False,False,America/Chicago
524,2,1,2,2,0,2,1,1,1,1,1,0,Garden Terrace Healthcare Center,1224 CORVADURA ST,,GRAHAM,TX,76450,Young,76450.0,33.0626,-98.62573,Graham,TX,Texas,True,,13020.0,11.1,48503.0,Young,"{'48363':1.53,'48429':0.57,'48503':97.9}",Young|Palo Pinto|Stephens,48503|48363|48429,False,False,America/Chicago
525,4,0,0,3,3,2,1,3,1,0,0,0,Garden Villa Nursing Home,106 DEL NORTE DR,,EL CAMPO,TX,77437,Wharton,77437.0,29.213040000000003,-96.28036,El Campo,TX,Texas,True,,16906.0,20.5,48481.0,Wharton,{'48481':100},Wharton,48481,False,False,America/Chicago
526,0,0,0,1,1,1,1,1,0,0,0,0,Gardendale Rehabilitation and Nursing Center,1521 E RUSK ST,,JACKSONVILLE,TX,75766,Cherokee,75766.0,31.9462,-95.25704,Jacksonville,TX,Texas,True,,27008.0,33.4,48073.0,Cherokee,{'48073':100},Cherokee,48073,False,False,America/Chicago
527,4,0,4,1,2,0,2,1,2,0,1,0,Garland Nursing and Rehabilitation,321 N SHILOH RD,,GARLAND,TX,75042,Dallas,75042.0,32.9139,-96.67493,Garland,TX,Texas,True,,39178.0,1954.7,48113.0,Dallas,{'48113':100},Dallas,48113,False,False,America/Chicago
528,8,8,10,15,22,16,15,15,9,7,3,4,Garnet Hill Rehabilitation and Skilled Care,1420 MCCREARY RD,,WYLIE,TX,75098,Dallas,75098.0,33.01189,-96.53479,Wylie,TX,Texas,True,,56764.0,565.0,48085.0,Collin,"{'48085':93.4,'48113':3.76,'48397':2.84}",Collin|Dallas|Rockwall,48085|48113|48397,False,False,America/Chicago
529,2,6,5,5,6,7,3,9,11,9,7,6,Garrison Geriatric Education And Care Center,3710 4TH ST,,LUBBOCK,TX,79415,Lubbock,79415.0,33.697540000000004,-101.90482,Lubbock,TX,Texas,True,,17243.0,103.1,48303.0,Lubbock,{'48303':100},Lubbock,48303,False,False,America/Chicago
530,10,11,8,12,9,7,4,9,3,4,7,8,Garrison Nursing Home and Rehabilitation Center,333 N FM 95,,GARRISON,TX,75946,Nacogdoches,75946.0,31.8136,-94.5254,Garrison,TX,Texas,True,,3543.0,9.9,48347.0,Nacogdoches,"{'48347':78.76,'48401':21.24}",Nacogdoches|Rusk,48347|48401,False,False,America/Chicago
532,4,1,2,1,0,1,0,1,1,0,0,0,Gazebo Terrace Convalescent Center,1303 HIGHWAY 290 E,,BRENHAM,TX,77833,Washington,77833.0,30.21068,-96.40706,Brenham,TX,Texas,True,,29737.0,33.8,48477.0,Washington,"{'48015':1.25,'48477':98.75}",Washington|Austin,48477|48015,False,False,America/Chicago
536,1,1,0,1,0,1,1,4,4,2,2,1,Georgia Manor Nursing Home,2611 SW 46TH AVE,,AMARILLO,TX,79110,Randall,79110.0,35.14901,-101.87111,Amarillo,TX,Texas,True,,19138.0,1297.9,48381.0,Randall,{'48381':100},Randall,48381,False,False,America/Chicago
538,1,0,0,0,0,1,0,1,1,1,1,1,Giddings Residence and Rehabilitation Center,1181 N WILLIAMSON ST,,GIDDINGS,TX,78942,Lee,78942.0,30.16902,-96.92221,Giddings,TX,Texas,True,,8629.0,16.9,48287.0,Lee,"{'48021':0.37,'48149':1.65,'48287':97.99}",Lee|Fayette|Bastrop,48287|48149|48021,False,False,America/Chicago
539,2,0,1,2,3,1,1,2,0,1,1,4,"Gilmer Nursing and Rehabilitation, LP",703 TITUS ST,,GILMER,TX,75644,Upshur,75644.0,32.7951,-94.99552,Gilmer,TX,Texas,True,,13387.0,23.6,48459.0,Upshur,{'48459':100},Upshur,48459,False,False,America/Chicago
542,8,5,5,8,5,4,3,6,6,3,3,3,Glen Rose Nursing and Rehab Center,1019 HOLDEN ST,,GLEN ROSE,TX,76043,Somervell,76043.0,32.20528,-97.79713,Glen Rose,TX,Texas,True,,7499.0,19.9,48425.0,Somervell,"{'48035':0.13,'48425':99.87}",Somervell|Bosque,48425|48035,False,False,America/Chicago
543,16,11,10,9,7,10,16,5,7,12,4,14,Glenview Wellness and Rehab,7625 GLENVIEW DR,,RICHLAND HILLS,TX,76180,Tarrant,76180.0,32.83996,-97.22499,North Richland Hills,TX,Texas,True,,36964.0,1370.3,48439.0,Tarrant,{'48439':100},Tarrant,48439,False,False,America/Chicago
544,0,1,2,2,0,4,4,3,1,4,1,1,Golden Acres Living and Rehabilitation Center,2525 CENTERVILLE RD,,DALLAS,TX,75228,Dallas,75228.0,32.82444,-96.67995,Dallas,TX,Texas,True,,73606.0,2252.6,48113.0,Dallas,{'48113':100},Dallas,48113,False,False,America/Chicago
545,0,0,0,2,3,1,1,1,0,0,0,1,Golden Age Healthcare Residence,704 E DOBKINS ST,,DUBLIN,TX,76446,Erath,76446.0,32.07521,-98.34946,Dublin,TX,Texas,True,,7686.0,8.3,48143.0,Erath,"{'48093':11.63,'48143':88.37}",Erath|Comanche,48143|48093,False,False,America/Chicago
547,2,2,1,1,0,1,2,1,0,0,1,1,Golden Creek Healthcare and Rehabilitation Center,2100 DOVE CROSSING LN,,NAVASOTA,TX,77868,Grimes,77868.0,30.3686,-96.0616,Navasota,TX,Texas,True,,17028.0,22.1,48185.0,Grimes,"{'48041':7.65,'48185':91.98,'48473':0.2,'48477':0.17}",Grimes|Brazos|Waller|Washington,48185|48041|48473|48477,False,False,America/Chicago
548,0,1,3,1,2,3,6,1,3,2,4,3,Golden Estates Rehabilitation Center,130 SPENCER LN,,SAN ANTONIO,TX,78201,Bexar,78201.0,29.46876,-98.52824,San Antonio,TX,Texas,True,,46775.0,2461.5,48029.0,Bexar,{'48029':100},Bexar,48029,False,False,America/Chicago
549,3,11,15,12,16,13,18,16,22,19,17,16,Golden Palms Health Center,2101 TREASURE HILLS BLVD,,HARLINGEN,TX,78550,Cameron,78550.0,26.25668,-97.66671,Harlingen,TX,Texas,True,,52216.0,214.7,48061.0,Cameron,{'48061':100},Cameron,48061,False,False,America/Chicago
550,0,0,0,1,0,0,0,0,0,0,0,0,Golden Plains Community Hospital,100 MEDICAL DR,,BORGER,TX,79007,Hutchinson,79007.0,35.69979,-101.39788,Borger,TX,Texas,True,,14447.0,126.1,48233.0,Hutchinson,{'48233':100},Hutchinson,48233,False,False,America/Chicago
551,9,6,8,8,16,9,9,11,5,8,7,6,Golden Villa Nursing Home,1104 S WILLIAM ST,,ATLANTA,TX,75551,Cass,75551.0,33.115559999999995,-94.20197,Atlanta,TX,Texas,True,,10679.0,25.7,48067.0,Cass,{'48067':100},Cass,48067,False,False,America/Chicago
552,1,1,0,2,2,1,0,1,1,0,0,0,Golden Years Nursing and Rehabilitation Center,318 CHAMBERS ST,,MARLIN,TX,76661,Falls,76661.0,31.31864,-96.84932,Marlin,TX,Texas,True,,8060.0,20.9,48145.0,Falls,{'48145':100},Falls,48145,False,False,America/Chicago
555,3,1,2,0,4,0,0,0,0,0,1,1,Gonzales Memorial Hospital,1110 N SARAH DEWITT DR,,GONZALES,TX,78629,Gonzales,78629.0,29.47721,-97.45171,Gonzales,TX,Texas,True,,12047.0,10.8,48177.0,Gonzales,"{'48123':0.24,'48177':99.76}",Gonzales|DeWitt,48177|48123,False,False,America/Chicago
556,12,11,11,19,17,11,14,15,8,4,10,7,Good Samaritan Society Denton Village,2500 HINKLE DR,,DENTON,TX,76201,Denton,76201.0,33.22113,-97.14723,Denton,TX,Texas,True,,27965.0,1876.1,48121.0,Denton,{'48121':100},Denton,48121,False,False,America/Chicago
557,4,5,4,7,9,5,9,7,1,3,5,5,Good Samaritan Society Lake Forest Village,3901 MONTECITO DR,,DENTON,TX,76210,Denton,76210.0,33.15036,-97.096,Denton,TX,Texas,True,,44231.0,951.1,48121.0,Denton,{'48121':100},Denton,48121,False,False,America/Chicago
558,11,8,12,12,13,10,7,8,5,8,6,12,Good Samaritan Society White Acres,7304 GOOD SAMARITAN CT,,EL PASO,TX,79912,El Paso,79912.0,31.84821,-106.53264,El Paso,TX,Texas,True,,80264.0,1257.8,48141.0,El Paso,{'48141':100},El Paso,48141,False,False,America/Denver
560,0,1,0,2,2,2,3,4,1,1,0,0,Goodall Witcher Hospital,101 POSEY AVE,,CLIFTON,TX,76634,Bosque,76634.0,31.80782,-97.56147,Clifton,TX,Texas,True,,7225.0,9.7,48035.0,Bosque,"{'48035':99.38,'48099':0.62}",Bosque|Coryell,48035|48099,False,False,America/Chicago
561,2,2,1,0,0,0,0,0,0,0,0,0,Goodall Witcher Nursing Facility Swing Bed,101 POSEY AVE,,CLIFTON,TX,76634,Bosque,76634.0,31.80782,-97.56147,Clifton,TX,Texas,True,,7225.0,9.7,48035.0,Bosque,"{'48035':99.38,'48099':0.62}",Bosque|Coryell,48035|48099,False,False,America/Chicago
564,9,10,6,11,14,13,10,9,12,21,14,22,Grace Care Center at Northpointe,11830 NORTHPOINTE BLVD,,TOMBALL,TX,77377,Harris,77377.0,30.06135,-95.68202,Tomball,TX,Texas,True,,37016.0,283.7,48201.0,Harris,{'48201':100},Harris,48201,False,False,America/Chicago
565,10,7,5,10,7,3,3,3,10,9,12,5,Grace Care Center of Cypress,9602 HUFFMEISTER RD,,HOUSTON,TX,77095,Harris,77095.0,29.90819,-95.65323,Houston,TX,Texas,True,,71878.0,1667.4,48201.0,Harris,{'48201':100},Harris,48201,False,False,America/Chicago
